[
  {
    "country_code": "AE",
    "region_name": "Ash Shariqah",
    "iata": "SHJ",
    "icao": "OMSJ",
    "airport": "Sharjah International Airport",
    "latitude": 25.3286,
    "longitude": 55.5172
  },
  {
    "country_code": "AE",
    "region_name": "Abu Zaby",
    "iata": "AZI",
    "icao": "OMAD",
    "airport": "Al Bateen Executive Airport",
    "latitude": 24.4283,
    "longitude": 54.4581
  },
  {
    "country_code": "AE",
    "region_name": "Al Fujayrah",
    "iata": "FJR",
    "icao": "OMFJ",
    "airport": "Fujairah International Airport",
    "latitude": 25.1122,
    "longitude": 56.324
  },
  {
    "country_code": "AE",
    "region_name": "Abu Zaby",
    "iata": "XSB",
    "icao": "OMBY",
    "airport": "Sir Bani Yas Airport",
    "latitude": 24.2836,
    "longitude": 52.5803
  },
  {
    "country_code": "AE",
    "region_name": "Ra's al Khaymah",
    "iata": "RKT",
    "icao": "OMRK",
    "airport": "Ras Al Khaimah International Airport",
    "latitude": 25.6135,
    "longitude": 55.9388
  },
  {
    "country_code": "AE",
    "region_name": "Dubayy",
    "iata": "DWC",
    "icao": "OMDW",
    "airport": "Al Maktoum International Airport",
    "latitude": 24.8964,
    "longitude": 55.1614
  },
  {
    "country_code": "AE",
    "region_name": "Abu Zaby",
    "iata": "DHF",
    "icao": "OMAM",
    "airport": "Al Dhafra Air Base",
    "latitude": 24.2482,
    "longitude": 54.5477
  },
  {
    "country_code": "AE",
    "region_name": "Abu Zaby",
    "iata": "ZDY",
    "icao": "OMDL",
    "airport": "Dalma Airport",
    "latitude": 24.51,
    "longitude": 52.3352
  },
  {
    "country_code": "AE",
    "region_name": "Dubayy",
    "iata": "DCG",
    "icao": "",
    "airport": "Dubai Creek Seaplane Base",
    "latitude": 25.2422,
    "longitude": 55.3314
  },
  {
    "country_code": "AE",
    "region_name": "Abu Zaby",
    "iata": "AYM",
    "icao": "",
    "airport": "Yas Island Seaplane Base",
    "latitude": 24.467,
    "longitude": 54.6103
  },
  {
    "country_code": "AE",
    "region_name": "Dubayy",
    "iata": "DJH",
    "icao": "",
    "airport": "Jebel Ali Seaplane Base",
    "latitude": 24.989,
    "longitude": 55.0238
  },
  {
    "country_code": "AE",
    "region_name": "Ra's al Khaymah",
    "iata": "RHR",
    "icao": "",
    "airport": "Al Hamra Seaplane Base",
    "latitude": 25.691,
    "longitude": 55.778
  },
  {
    "country_code": "AE",
    "region_name": "Dubayy",
    "iata": "DXB",
    "icao": "OMDB",
    "airport": "Dubai International Airport",
    "latitude": 25.2528,
    "longitude": 55.3644
  },
  {
    "country_code": "AE",
    "region_name": "Abu Zaby",
    "iata": "AAN",
    "icao": "OMAL",
    "airport": "Al Ain International Airport",
    "latitude": 24.2617,
    "longitude": 55.6092
  },
  {
    "country_code": "AE",
    "region_name": "Dubayy",
    "iata": "NHD",
    "icao": "OMDM",
    "airport": "Al Minhad Air Base",
    "latitude": 25.0268,
    "longitude": 55.3662
  },
  {
    "country_code": "AE",
    "region_name": "Abu Zaby",
    "iata": "AUH",
    "icao": "OMAA",
    "airport": "Abu Dhabi International Airport",
    "latitude": 24.433,
    "longitude": 54.6511
  },
  {
    "country_code": "AF",
    "region_name": "Farah",
    "iata": "FAH",
    "icao": "OAFR",
    "airport": "Farah Airport",
    "latitude": 32.367,
    "longitude": 62.183
  },
  {
    "country_code": "AF",
    "region_name": "Faryab",
    "iata": "MMZ",
    "icao": "OAMN",
    "airport": "Maymana Airport",
    "latitude": 35.9308,
    "longitude": 64.7609
  },
  {
    "country_code": "AF",
    "region_name": "Khost",
    "iata": "OLR",
    "icao": "OASL",
    "airport": "Forward Operating Base Salerno",
    "latitude": 33.3638,
    "longitude": 69.9561
  },
  {
    "country_code": "AF",
    "region_name": "Badakhshan",
    "iata": "KWH",
    "icao": "OAHN",
    "airport": "Khwahan Airport",
    "latitude": 37.883,
    "longitude": 70.217
  },
  {
    "country_code": "AF",
    "region_name": "Ghazni",
    "iata": "SBF",
    "icao": "OADS",
    "airport": "Sardeh Band Airport",
    "latitude": 33.3207,
    "longitude": 68.6365
  },
  {
    "country_code": "AF",
    "region_name": "Badghis",
    "iata": "LQN",
    "icao": "OAQN",
    "airport": "Qala i Naw Airport",
    "latitude": 34.985,
    "longitude": 63.1178
  },
  {
    "country_code": "AF",
    "region_name": "Badakhshan",
    "iata": "FBD",
    "icao": "OAFZ",
    "airport": "Fayzabad Airport",
    "latitude": 37.1211,
    "longitude": 70.5181
  },
  {
    "country_code": "AF",
    "region_name": "Khost",
    "iata": "KHT",
    "icao": "OAKS",
    "airport": "Khost Airfield",
    "latitude": 33.3334,
    "longitude": 69.952
  },
  {
    "country_code": "AF",
    "region_name": "Badakhshan",
    "iata": "SGA",
    "icao": "OASN",
    "airport": "Sheghnan Airport",
    "latitude": 37.567,
    "longitude": 71.5
  },
  {
    "country_code": "AF",
    "region_name": "Herat",
    "iata": "HEA",
    "icao": "OAHR",
    "airport": "Herat International Airport",
    "latitude": 34.21,
    "longitude": 62.2283
  },
  {
    "country_code": "AF",
    "region_name": "Ghazni",
    "iata": "GZI",
    "icao": "OAGN",
    "airport": "Ghazni Airport",
    "latitude": 33.5312,
    "longitude": 68.4129
  },
  {
    "country_code": "AF",
    "region_name": "Bamyan",
    "iata": "BIN",
    "icao": "OABN",
    "airport": "Bamyan Airport",
    "latitude": 34.817,
    "longitude": 67.817
  },
  {
    "country_code": "AF",
    "region_name": "Kandahar",
    "iata": "KDH",
    "icao": "OAKN",
    "airport": "Kandahar International Airport",
    "latitude": 31.5058,
    "longitude": 65.8478
  },
  {
    "country_code": "AF",
    "region_name": "Helmand",
    "iata": "DWR",
    "icao": "OADY",
    "airport": "Dwyer Airport",
    "latitude": 31,
    "longitude": 64
  },
  {
    "country_code": "AF",
    "region_name": "Kabul",
    "iata": "GRG",
    "icao": "OAGZ",
    "airport": "Gardez Airport",
    "latitude": 33.6315,
    "longitude": 69.2394
  },
  {
    "country_code": "AF",
    "region_name": "Kunduz",
    "iata": "UND",
    "icao": "OAUZ",
    "airport": "Kunduz Airport",
    "latitude": 36.6651,
    "longitude": 68.9108
  },
  {
    "country_code": "AF",
    "region_name": "Helmand",
    "iata": "BST",
    "icao": "OABT",
    "airport": "Bost Airport",
    "latitude": 31.5597,
    "longitude": 64.365
  },
  {
    "country_code": "AF",
    "region_name": "Kandahar",
    "iata": "URZ",
    "icao": "OARG",
    "airport": "Uruzgan Airport",
    "latitude": 32.903,
    "longitude": 66.6309
  },
  {
    "country_code": "AF",
    "region_name": "Kandahar",
    "iata": "TII",
    "icao": "OATN",
    "airport": "Tarinkot Airport",
    "latitude": 32.6042,
    "longitude": 65.8658
  },
  {
    "country_code": "AF",
    "region_name": "Paktika",
    "iata": "URN",
    "icao": "OAOG",
    "airport": "Urgun Airport",
    "latitude": 32.9318,
    "longitude": 69.1563
  },
  {
    "country_code": "AF",
    "region_name": "Herat",
    "iata": "ZAJ",
    "icao": "OAZJ",
    "airport": "Zaranj Airport",
    "latitude": 30.9722,
    "longitude": 61.8658
  },
  {
    "country_code": "AF",
    "region_name": "Helmand",
    "iata": "OAZ",
    "icao": "OAZI",
    "airport": "Camp Bastion Air Base",
    "latitude": 31.8638,
    "longitude": 64.2246
  },
  {
    "country_code": "AF",
    "region_name": "Balkh",
    "iata": "MZR",
    "icao": "OAMS",
    "airport": "Mazar-e Sharif International Airport",
    "latitude": 36.7069,
    "longitude": 67.2097
  },
  {
    "country_code": "AF",
    "region_name": "Badakhshan",
    "iata": "KUR",
    "icao": "OARZ",
    "airport": "Razer Airport",
    "latitude": 37.752,
    "longitude": -89.0154
  },
  {
    "country_code": "AF",
    "region_name": "Takhar",
    "iata": "TQN",
    "icao": "OATQ",
    "airport": "Taloqan Airport",
    "latitude": 36.7707,
    "longitude": 69.532
  },
  {
    "country_code": "AF",
    "region_name": "Ghor",
    "iata": "CCN",
    "icao": "OACC",
    "airport": "Chaghcharan Airport",
    "latitude": 34.5265,
    "longitude": 65.271
  },
  {
    "country_code": "AF",
    "region_name": "Badakhshan",
    "iata": "DAZ",
    "icao": "OADZ",
    "airport": "Darwaz Airport",
    "latitude": 38.4611,
    "longitude": 70.8825
  },
  {
    "country_code": "AF",
    "region_name": "Nangarhar",
    "iata": "JAA",
    "icao": "OAJL",
    "airport": "Jalalabad Airport",
    "latitude": 34.3998,
    "longitude": 70.4986
  },
  {
    "country_code": "AF",
    "region_name": "Logar",
    "iata": "OAA",
    "icao": "OASH",
    "airport": "Forward Operating Base Shank",
    "latitude": 33.9225,
    "longitude": 69.0772
  },
  {
    "country_code": "AF",
    "region_name": "Herat",
    "iata": "OAH",
    "icao": "OASD",
    "airport": "Shindand Air Base",
    "latitude": 33.3913,
    "longitude": 62.261
  },
  {
    "country_code": "AF",
    "region_name": "Parwan",
    "iata": "OAI",
    "icao": "OAIX",
    "airport": "Bagram Airfield",
    "latitude": 34.9461,
    "longitude": 69.265
  },
  {
    "country_code": "AF",
    "region_name": "Paktika",
    "iata": "OAS",
    "icao": "OASA",
    "airport": "Sharana Airstrip / Forward Operating Base Sharana",
    "latitude": 33.1258,
    "longitude": 68.8385
  },
  {
    "country_code": "AF",
    "region_name": "Kabul",
    "iata": "KBL",
    "icao": "OAKB",
    "airport": "Kabul International Airport",
    "latitude": 34.5658,
    "longitude": 69.2131
  },
  {
    "country_code": "AG",
    "region_name": "Barbuda",
    "iata": "BBQ",
    "icao": "TAPH",
    "airport": "Barbuda Codrington Airport",
    "latitude": 17.6358,
    "longitude": -61.8286
  },
  {
    "country_code": "AG",
    "region_name": "Saint George",
    "iata": "ANU",
    "icao": "TAPA",
    "airport": "V. C. Bird International Airport",
    "latitude": 17.1367,
    "longitude": -61.7927
  },
  {
    "country_code": "AI",
    "region_name": "Anguilla",
    "iata": "AXA",
    "icao": "TQPF",
    "airport": "Clayton J. Lloyd International Airport",
    "latitude": 18.2048,
    "longitude": -63.0551
  },
  {
    "country_code": "AM",
    "region_name": "Sirak",
    "iata": "LWN",
    "icao": "UDSG",
    "airport": "Gyumri Shirak Airport",
    "latitude": 40.7504,
    "longitude": 43.8593
  },
  {
    "country_code": "AM",
    "region_name": "Erevan",
    "iata": "EVN",
    "icao": "UDYZ",
    "airport": "Zvartnots International Airport",
    "latitude": 40.1473,
    "longitude": 44.3959
  },
  {
    "country_code": "AO",
    "region_name": "Moxico",
    "iata": "LUO",
    "icao": "FNUE",
    "airport": "Luena Airport",
    "latitude": -11.7681,
    "longitude": 19.8977
  },
  {
    "country_code": "AO",
    "region_name": "Cunene",
    "iata": "VPE",
    "icao": "FNGI",
    "airport": "Ondjiva Pereira Airport",
    "latitude": -17.0435,
    "longitude": 15.6838
  },
  {
    "country_code": "AO",
    "region_name": "Uige",
    "iata": "UGO",
    "icao": "FNUG",
    "airport": "Uige Airport",
    "latitude": -7.60307,
    "longitude": 15.0278
  },
  {
    "country_code": "AO",
    "region_name": "Malange",
    "iata": "KNP",
    "icao": "FNCP",
    "airport": "Kapanda Airport",
    "latitude": -9.76937,
    "longitude": 15.4553
  },
  {
    "country_code": "AO",
    "region_name": "Bie",
    "iata": "SVP",
    "icao": "FNKU",
    "airport": "Kuito Airport",
    "latitude": -12.4046,
    "longitude": 16.9474
  },
  {
    "country_code": "AO",
    "region_name": "Zaire",
    "iata": "ARZ",
    "icao": "FNZE",
    "airport": "N'zeto Airport",
    "latitude": -7.25944,
    "longitude": 12.8631
  },
  {
    "country_code": "AO",
    "region_name": "Kuando Kubango",
    "iata": "CTI",
    "icao": "FNCV",
    "airport": "Cuito Cuanavale Airport",
    "latitude": -15.1603,
    "longitude": 19.1561
  },
  {
    "country_code": "AO",
    "region_name": "Namibe",
    "iata": "MSZ",
    "icao": "FNMO",
    "airport": "Namibe Airport (Yuri Gagarin Airport)",
    "latitude": -15.2612,
    "longitude": 12.1468
  },
  {
    "country_code": "AO",
    "region_name": "Zaire",
    "iata": "SZA",
    "icao": "FNSO",
    "airport": "Soyo Airport",
    "latitude": -6.14109,
    "longitude": 12.3718
  },
  {
    "country_code": "AO",
    "region_name": "Huila",
    "iata": "SDD",
    "icao": "FNUB",
    "airport": "Lubango Mukanka Airport",
    "latitude": -14.9247,
    "longitude": 13.575
  },
  {
    "country_code": "AO",
    "region_name": "Kwanza Sul",
    "iata": "PBN",
    "icao": "FNPA",
    "airport": "Porto Amboim Airport",
    "latitude": -10.722,
    "longitude": 13.7655
  },
  {
    "country_code": "AO",
    "region_name": "Moxico",
    "iata": "CAV",
    "icao": "FNCZ",
    "airport": "Cazombo Airport",
    "latitude": -11.8931,
    "longitude": 22.9164
  },
  {
    "country_code": "AO",
    "region_name": "Malange",
    "iata": "MEG",
    "icao": "FNMA",
    "airport": "Malanje Airport",
    "latitude": -9.52509,
    "longitude": 16.3124
  },
  {
    "country_code": "AO",
    "region_name": "Moxico",
    "iata": "GGC",
    "icao": "",
    "airport": "Lumbala N'guimbo Airport",
    "latitude": -14.105,
    "longitude": 21.45
  },
  {
    "country_code": "AO",
    "region_name": "Bengo",
    "iata": "AZZ",
    "icao": "FNAM",
    "airport": "Ambriz Airport",
    "latitude": -7.86222,
    "longitude": 13.1161
  },
  {
    "country_code": "AO",
    "region_name": "Lunda Norte",
    "iata": "LZM",
    "icao": "FNLZ",
    "airport": "Cuango-Luzamba Airport",
    "latitude": -9.11596,
    "longitude": 18.0493
  },
  {
    "country_code": "AO",
    "region_name": "Lunda Sul",
    "iata": "VHC",
    "icao": "FNSA",
    "airport": "Henrique de Carvalho Airport",
    "latitude": -9.68907,
    "longitude": 20.4319
  },
  {
    "country_code": "AO",
    "region_name": "Lunda Norte",
    "iata": "PGI",
    "icao": "FNCH",
    "airport": "Chitato Airport",
    "latitude": -7.35889,
    "longitude": 20.8047
  },
  {
    "country_code": "AO",
    "region_name": "Kuando Kubango",
    "iata": "DRC",
    "icao": "",
    "airport": "Dirico Airport",
    "latitude": -17.9819,
    "longitude": 20.7681
  },
  {
    "country_code": "AO",
    "region_name": "Bie",
    "iata": "ANL",
    "icao": "",
    "airport": "Andulo Airport",
    "latitude": -11.4723,
    "longitude": 16.7109
  },
  {
    "country_code": "AO",
    "region_name": "Lunda Norte",
    "iata": "DUE",
    "icao": "FNDU",
    "airport": "Dundo Airport",
    "latitude": -7.40089,
    "longitude": 20.8185
  },
  {
    "country_code": "AO",
    "region_name": "Benguela",
    "iata": "LLT",
    "icao": "FNLB",
    "airport": "Lobito Airport",
    "latitude": -12.3757,
    "longitude": 13.561
  },
  {
    "country_code": "AO",
    "region_name": "Benguela",
    "iata": "CBT",
    "icao": "FNCT",
    "airport": "Catumbela Airport",
    "latitude": -12.4792,
    "longitude": 13.4869
  },
  {
    "country_code": "AO",
    "region_name": "Kwanza Sul",
    "iata": "NDD",
    "icao": "FNSU",
    "airport": "Sumbe Airport",
    "latitude": -11.1679,
    "longitude": 13.8475
  },
  {
    "country_code": "AO",
    "region_name": "Kwanza Sul",
    "iata": "CEO",
    "icao": "FNWK",
    "airport": "Waco Kungo Airport",
    "latitude": -11.4264,
    "longitude": 15.1014
  },
  {
    "country_code": "AO",
    "region_name": "Kwanza Norte",
    "iata": "NDF",
    "icao": "",
    "airport": "N'dalatando Airport",
    "latitude": -9.27519,
    "longitude": 14.9772
  },
  {
    "country_code": "AO",
    "region_name": "Huila",
    "iata": "JMB",
    "icao": "",
    "airport": "Jamba Airport",
    "latitude": -14.6982,
    "longitude": 16.0701
  },
  {
    "country_code": "AO",
    "region_name": "Huambo",
    "iata": "NOV",
    "icao": "FNHU",
    "airport": "Albano Machado Airport",
    "latitude": -12.8089,
    "longitude": 15.7605
  },
  {
    "country_code": "AO",
    "region_name": "Benguela",
    "iata": "BUG",
    "icao": "FNBG",
    "airport": "Benguela Airport (Gen. V. Deslandes Airport)",
    "latitude": -12.609,
    "longitude": 13.4037
  },
  {
    "country_code": "AO",
    "region_name": "Lunda Norte",
    "iata": "LBZ",
    "icao": "FNLK",
    "airport": "Lucapa Airport",
    "latitude": -8.44573,
    "longitude": 20.7321
  },
  {
    "country_code": "AO",
    "region_name": "Luanda",
    "iata": "LAD",
    "icao": "FNLU",
    "airport": "Quatro de Fevereiro Airport",
    "latitude": -8.85837,
    "longitude": 13.2312
  },
  {
    "country_code": "AO",
    "region_name": "Lunda Norte",
    "iata": "NZA",
    "icao": "FNZG",
    "airport": "Nzagi Airport",
    "latitude": -7.71694,
    "longitude": 21.3582
  },
  {
    "country_code": "AO",
    "region_name": "Cunene",
    "iata": "XGN",
    "icao": "FNXA",
    "airport": "Xangongo Airport",
    "latitude": -16.7554,
    "longitude": 14.9653
  },
  {
    "country_code": "AO",
    "region_name": "Lunda Norte",
    "iata": "CFF",
    "icao": "FNCF",
    "airport": "Cafunfo Airport",
    "latitude": -8.78361,
    "longitude": 17.9897
  },
  {
    "country_code": "AO",
    "region_name": "Cabinda",
    "iata": "CAB",
    "icao": "FNCA",
    "airport": "Cabinda Airport",
    "latitude": -5.59699,
    "longitude": 12.1884
  },
  {
    "country_code": "AO",
    "region_name": "Moxico",
    "iata": "UAL",
    "icao": "FNUA",
    "airport": "Luau Airport",
    "latitude": -10.7158,
    "longitude": 22.2311
  },
  {
    "country_code": "AO",
    "region_name": "Kuando Kubango",
    "iata": "SPP",
    "icao": "FNME",
    "airport": "Menongue Airport",
    "latitude": -14.6576,
    "longitude": 17.7198
  },
  {
    "country_code": "AO",
    "region_name": "Uige",
    "iata": "GXG",
    "icao": "FNNG",
    "airport": "Negage Airport",
    "latitude": -7.75451,
    "longitude": 15.2877
  },
  {
    "country_code": "AO",
    "region_name": "Zaire",
    "iata": "SSY",
    "icao": "FNBC",
    "airport": "Mbanza Congo Airport",
    "latitude": -6.2699,
    "longitude": 14.247
  },
  {
    "country_code": "AO",
    "region_name": "Moxico",
    "iata": "CNZ",
    "icao": "",
    "airport": "Cangamba Airport",
    "latitude": -13.7106,
    "longitude": 19.8611
  },
  {
    "country_code": "AQ",
    "region_name": "Antarctica",
    "iata": "TNM",
    "icao": "SCRM",
    "airport": "Teniente R. Marsh Airport",
    "latitude": -62.1908,
    "longitude": -58.9867
  },
  {
    "country_code": "AR",
    "region_name": "Buenos Aires",
    "iata": "EPA",
    "icao": "SADP",
    "airport": "El Palomar Airport",
    "latitude": -34.6099,
    "longitude": -58.6126
  },
  {
    "country_code": "AR",
    "region_name": "San Luis",
    "iata": "RLO",
    "icao": "SAOS",
    "airport": "Valle del Conlara Airport",
    "latitude": -32.3847,
    "longitude": -65.1865
  },
  {
    "country_code": "AR",
    "region_name": "Entre Rios",
    "iata": "COC",
    "icao": "SAAC",
    "airport": "Comodoro Pierrestegui Airport",
    "latitude": -31.2969,
    "longitude": -57.9966
  },
  {
    "country_code": "AR",
    "region_name": "Santa Fe",
    "iata": "ROS",
    "icao": "SAAR",
    "airport": "Rosario - Islas Malvinas International Airport",
    "latitude": -32.9036,
    "longitude": -60.785
  },
  {
    "country_code": "AR",
    "region_name": "Chubut",
    "iata": "ROY",
    "icao": "SAWM",
    "airport": "Rio Mayo Airport",
    "latitude": -45.7039,
    "longitude": -70.2456
  },
  {
    "country_code": "AR",
    "region_name": "La Pampa",
    "iata": "RSA",
    "icao": "SAZR",
    "airport": "Santa Rosa Airport (Argentina)",
    "latitude": -36.5883,
    "longitude": -64.2757
  },
  {
    "country_code": "AR",
    "region_name": "Santa Cruz",
    "iata": "RYO",
    "icao": "SAWT",
    "airport": "Rio Turbio Airport",
    "latitude": -51.605,
    "longitude": -72.2203
  },
  {
    "country_code": "AR",
    "region_name": "Santa Cruz",
    "iata": "RZA",
    "icao": "SAWU",
    "airport": "Santa Cruz Airport (Argentina)",
    "latitude": -50.0165,
    "longitude": -68.5792
  },
  {
    "country_code": "AR",
    "region_name": "La Pampa",
    "iata": "GPO",
    "icao": "SAZG",
    "airport": "General Pico Airport",
    "latitude": -35.6962,
    "longitude": -63.7583
  },
  {
    "country_code": "AR",
    "region_name": "Corrientes",
    "iata": "CNQ",
    "icao": "SARC",
    "airport": "Doctor Fernando Piragine Niveyro International Airport",
    "latitude": -27.4455,
    "longitude": -58.7619
  },
  {
    "country_code": "AR",
    "region_name": "Misiones",
    "iata": "ELO",
    "icao": "SATD",
    "airport": "Eldorado Airport",
    "latitude": -26.3975,
    "longitude": -54.5747
  },
  {
    "country_code": "AR",
    "region_name": "Santiago del Estero",
    "iata": "SDE",
    "icao": "SANE",
    "airport": "Vicecomodoro Angel de la Paz Aragones Airport",
    "latitude": -27.7656,
    "longitude": -64.31
  },
  {
    "country_code": "AR",
    "region_name": "Mendoza",
    "iata": "AFA",
    "icao": "SAMR",
    "airport": "San Rafael Airport (Argentina)",
    "latitude": -34.5883,
    "longitude": -68.4039
  },
  {
    "country_code": "AR",
    "region_name": "Neuquen",
    "iata": "HOS",
    "icao": "SAHC",
    "airport": "Chos Malal Airport",
    "latitude": -37.4447,
    "longitude": -70.2225
  },
  {
    "country_code": "AR",
    "region_name": "Neuquen",
    "iata": "APZ",
    "icao": "SAHZ",
    "airport": "Zapala Airport",
    "latitude": -38.9755,
    "longitude": -70.1136
  },
  {
    "country_code": "AR",
    "region_name": "Santa Fe",
    "iata": "SFN",
    "icao": "SAAV",
    "airport": "Sauce Viejo Airport",
    "latitude": -31.7117,
    "longitude": -60.8117
  },
  {
    "country_code": "AR",
    "region_name": "Cordoba",
    "iata": "COR",
    "icao": "SACO",
    "airport": "Ingeniero Aeronautico Ambrosio L.V. Taravella International Airport (Pajas Blancas)",
    "latitude": -31.3236,
    "longitude": -64.208
  },
  {
    "country_code": "AR",
    "region_name": "Rio Negro",
    "iata": "SGV",
    "icao": "SAVS",
    "airport": "Sierra Grande Airport",
    "latitude": -41.5917,
    "longitude": -65.3394
  },
  {
    "country_code": "AR",
    "region_name": "Corrientes",
    "iata": "UZU",
    "icao": "SATU",
    "airport": "Curuzu Cuatia Airport",
    "latitude": -29.7706,
    "longitude": -57.9789
  },
  {
    "country_code": "AR",
    "region_name": "Salta",
    "iata": "SLA",
    "icao": "SASA",
    "airport": "Martin Miguel de Guemes International Airport",
    "latitude": -24.856,
    "longitude": -65.4862
  },
  {
    "country_code": "AR",
    "region_name": "Rio Negro",
    "iata": "MQD",
    "icao": "SAVQ",
    "airport": "Maquinchao Airport",
    "latitude": -41.2431,
    "longitude": -68.7078
  },
  {
    "country_code": "AR",
    "region_name": "Rio Negro",
    "iata": "OES",
    "icao": "SAVN",
    "airport": "Antoine de Saint Exupery Airport",
    "latitude": -40.7512,
    "longitude": -65.0343
  },
  {
    "country_code": "AR",
    "region_name": "Neuquen",
    "iata": "CPC",
    "icao": "SAZY",
    "airport": "Aviador Carlos Campos Airport",
    "latitude": -40.0754,
    "longitude": -71.1373
  },
  {
    "country_code": "AR",
    "region_name": "Salta",
    "iata": "TTG",
    "icao": "SAST",
    "airport": "Tartagal Airport",
    "latitude": -22.6196,
    "longitude": -63.7937
  },
  {
    "country_code": "AR",
    "region_name": "Buenos Aires",
    "iata": "CSZ",
    "icao": "SAZC",
    "airport": "Brigadier Hector Eduardo Ruiz Airport",
    "latitude": -37.4461,
    "longitude": -61.8893
  },
  {
    "country_code": "AR",
    "region_name": "Catamarca",
    "iata": "CTC",
    "icao": "SANC",
    "airport": "Coronel Felipe Varela International Airport",
    "latitude": -28.5956,
    "longitude": -65.7517
  },
  {
    "country_code": "AR",
    "region_name": "Chubut",
    "iata": "OLN",
    "icao": "SAVM",
    "airport": "Lago Musters Airport",
    "latitude": -45.5824,
    "longitude": -68.9998
  },
  {
    "country_code": "AR",
    "region_name": "Buenos Aires",
    "iata": "CPG",
    "icao": "",
    "airport": "Carmen de Patagones Airport",
    "latitude": -40.7781,
    "longitude": -62.9803
  },
  {
    "country_code": "AR",
    "region_name": "Buenos Aires",
    "iata": "SST",
    "icao": "SAZL",
    "airport": "Santa Teresita Airport",
    "latitude": -36.5423,
    "longitude": -56.7218
  },
  {
    "country_code": "AR",
    "region_name": "Rio Negro",
    "iata": "BRC",
    "icao": "SAZS",
    "airport": "San Carlos de Bariloche Airport",
    "latitude": -41.1512,
    "longitude": -71.1575
  },
  {
    "country_code": "AR",
    "region_name": "Salta",
    "iata": "ORA",
    "icao": "SASO",
    "airport": "Oran Air",
    "latitude": -23.1528,
    "longitude": -64.3292
  },
  {
    "country_code": "AR",
    "region_name": "San Juan",
    "iata": "UAQ",
    "icao": "SANU",
    "airport": "Domingo Faustino Sarmiento Airport",
    "latitude": -31.5715,
    "longitude": -68.4182
  },
  {
    "country_code": "AR",
    "region_name": "Chubut",
    "iata": "ARR",
    "icao": "SAVR",
    "airport": "Alto Rio Senguer Airport",
    "latitude": -45.0136,
    "longitude": -70.8122
  },
  {
    "country_code": "AR",
    "region_name": "Buenos Aires",
    "iata": "OVR",
    "icao": "SAZF",
    "airport": "Olavarria Airport",
    "latitude": -36.89,
    "longitude": -60.2166
  },
  {
    "country_code": "AR",
    "region_name": "Corrientes",
    "iata": "OYA",
    "icao": "SATG",
    "airport": "Goya Airport",
    "latitude": -29.1058,
    "longitude": -59.2189
  },
  {
    "country_code": "AR",
    "region_name": "Buenos Aires",
    "iata": "OYO",
    "icao": "SAZH",
    "airport": "Tres Arroyos Airport",
    "latitude": -38.3869,
    "longitude": -60.3297
  },
  {
    "country_code": "AR",
    "region_name": "San Luis",
    "iata": "LUQ",
    "icao": "SAOU",
    "airport": "Brigadier Mayor Cesar Raul Ojeda Airport",
    "latitude": -33.2732,
    "longitude": -66.3564
  },
  {
    "country_code": "AR",
    "region_name": "Tucuman",
    "iata": "TUC",
    "icao": "SANT",
    "airport": "Teniente General Benjamin Matienzo International Airport",
    "latitude": -26.8409,
    "longitude": -65.1049
  },
  {
    "country_code": "AR",
    "region_name": "Formosa",
    "iata": "CLX",
    "icao": "SATC",
    "airport": "Clorinda Airport",
    "latitude": -25.3036,
    "longitude": -57.7344
  },
  {
    "country_code": "AR",
    "region_name": "Chubut",
    "iata": "EMX",
    "icao": "SAVD",
    "airport": "El Maiten Airport",
    "latitude": -42.0292,
    "longitude": -71.1725
  },
  {
    "country_code": "AR",
    "region_name": "Buenos Aires",
    "iata": "PEH",
    "icao": "SAZP",
    "airport": "Comodoro Pedro Zanni Airport",
    "latitude": -35.8446,
    "longitude": -61.8576
  },
  {
    "country_code": "AR",
    "region_name": "Santa Cruz",
    "iata": "PMQ",
    "icao": "SAWP",
    "airport": "Perito Moreno Airport",
    "latitude": -46.5379,
    "longitude": -70.9787
  },
  {
    "country_code": "AR",
    "region_name": "Chubut",
    "iata": "PMY",
    "icao": "SAVY",
    "airport": "El Tehuelche Airport",
    "latitude": -42.7592,
    "longitude": -65.1027
  },
  {
    "country_code": "AR",
    "region_name": "Santa Cruz",
    "iata": "ULA",
    "icao": "SAWJ",
    "airport": "Capitan Jose Daniel Vazquez Airport",
    "latitude": -49.3068,
    "longitude": -67.8026
  },
  {
    "country_code": "AR",
    "region_name": "Jujuy",
    "iata": "JUJ",
    "icao": "SASJ",
    "airport": "Gobernador Horacio Guzman International Airport",
    "latitude": -24.3928,
    "longitude": -65.0978
  },
  {
    "country_code": "AR",
    "region_name": "Rio Negro",
    "iata": "GNR",
    "icao": "SAHR",
    "airport": "Dr. Arturo Umberto Illia Airport",
    "latitude": -39.0007,
    "longitude": -67.6205
  },
  {
    "country_code": "AR",
    "region_name": "Buenos Aires",
    "iata": "VLG",
    "icao": "SAZV",
    "airport": "Villa Gesell Airport",
    "latitude": -37.2354,
    "longitude": -57.0292
  },
  {
    "country_code": "AR",
    "region_name": "Chubut",
    "iata": "JSM",
    "icao": "SAWS",
    "airport": "Jose de San Martin Airport",
    "latitude": -44.0486,
    "longitude": -70.4589
  },
  {
    "country_code": "AR",
    "region_name": "Entre Rios",
    "iata": "PRA",
    "icao": "SAAP",
    "airport": "General Justo Jose de Urquiza Airport",
    "latitude": -31.7948,
    "longitude": -60.4804
  },
  {
    "country_code": "AR",
    "region_name": "Buenos Aires",
    "iata": "JNI",
    "icao": "SAAJ",
    "airport": "Junin Airport",
    "latitude": -34.5459,
    "longitude": -60.9306
  },
  {
    "country_code": "AR",
    "region_name": "Entre Rios",
    "iata": "GHU",
    "icao": "SAAG",
    "airport": "Gualeguaychu Airport",
    "latitude": -33.0103,
    "longitude": -58.6131
  },
  {
    "country_code": "AR",
    "region_name": "Tierra del Fuego",
    "iata": "USH",
    "icao": "SAWH",
    "airport": "Ushuaia - Malvinas Argentinas International Airport",
    "latitude": -54.8433,
    "longitude": -68.2958
  },
  {
    "country_code": "AR",
    "region_name": "Chaco",
    "iata": "PRQ",
    "icao": "SARS",
    "airport": "Presidencia Roque Saenz Pena Airport",
    "latitude": -26.7536,
    "longitude": -60.4922
  },
  {
    "country_code": "AR",
    "region_name": "Santa Cruz",
    "iata": "GGS",
    "icao": "SAWR",
    "airport": "Gobernador Gregores Airport",
    "latitude": -48.7831,
    "longitude": -70.15
  },
  {
    "country_code": "AR",
    "region_name": "Chubut",
    "iata": "CRD",
    "icao": "SAVC",
    "airport": "General Enrique Mosconi International Airport",
    "latitude": -45.7853,
    "longitude": -67.4655
  },
  {
    "country_code": "AR",
    "region_name": "Rio Negro",
    "iata": "EHL",
    "icao": "SAVB",
    "airport": "El Bolson Airport",
    "latitude": -41.9432,
    "longitude": -71.5323
  },
  {
    "country_code": "AR",
    "region_name": "Misiones",
    "iata": "PSS",
    "icao": "SARP",
    "airport": "Libertador General Jose de San Martin Airport",
    "latitude": -27.3858,
    "longitude": -55.9707
  },
  {
    "country_code": "AR",
    "region_name": "Buenos Aires",
    "iata": "TDL",
    "icao": "SAZT",
    "airport": "Tandil Airport",
    "latitude": -37.2374,
    "longitude": -59.2279
  },
  {
    "country_code": "AR",
    "region_name": "Santa Cruz",
    "iata": "PUD",
    "icao": "SAWD",
    "airport": "Puerto Deseado Airport",
    "latitude": -47.7353,
    "longitude": -65.9041
  },
  {
    "country_code": "AR",
    "region_name": "Santa Fe",
    "iata": "RAF",
    "icao": "SAFR",
    "airport": "Rafaela Airport",
    "latitude": -31.2825,
    "longitude": -61.5017
  },
  {
    "country_code": "AR",
    "region_name": "Santa Cruz",
    "iata": "FTE",
    "icao": "SAWA",
    "airport": "Comandante Armando Tola International Airport",
    "latitude": -50.2803,
    "longitude": -72.0531
  },
  {
    "country_code": "AR",
    "region_name": "Formosa",
    "iata": "FMA",
    "icao": "SARF",
    "airport": "Formosa International Airport (El Pucu Airport)",
    "latitude": -26.2127,
    "longitude": -58.2281
  },
  {
    "country_code": "AR",
    "region_name": "San Luis",
    "iata": "VME",
    "icao": "SAOR",
    "airport": "Villa Reynolds Airport",
    "latitude": -33.7299,
    "longitude": -65.3874
  },
  {
    "country_code": "AR",
    "region_name": "La Rioja",
    "iata": "IRJ",
    "icao": "SANL",
    "airport": "Capitan Vicente Almandos Almonacid Airport",
    "latitude": -29.3816,
    "longitude": -66.7958
  },
  {
    "country_code": "AR",
    "region_name": "Buenos Aires",
    "iata": "VGS",
    "icao": "",
    "airport": "General Villegas Airport",
    "latitude": -35,
    "longitude": -63
  },
  {
    "country_code": "AR",
    "region_name": "Buenos Aires",
    "iata": "LPG",
    "icao": "SADL",
    "airport": "La Plata Airport",
    "latitude": -34.9722,
    "longitude": -57.8947
  },
  {
    "country_code": "AR",
    "region_name": "Neuquen",
    "iata": "CUT",
    "icao": "SAZW",
    "airport": "Cutral Co Airport",
    "latitude": -38.9397,
    "longitude": -69.2646
  },
  {
    "country_code": "AR",
    "region_name": "Santa Fe",
    "iata": "CRR",
    "icao": "SANW",
    "airport": "Ceres Airport",
    "latitude": -29.8723,
    "longitude": -61.9279
  },
  {
    "country_code": "AR",
    "region_name": "Rio Negro",
    "iata": "LMD",
    "icao": "",
    "airport": "Los Menucos Airport",
    "latitude": -40.8177,
    "longitude": -68.0747
  },
  {
    "country_code": "AR",
    "region_name": "Santa Fe",
    "iata": "RCQ",
    "icao": "SATR",
    "airport": "Reconquista Airport",
    "latitude": -29.2103,
    "longitude": -59.68
  },
  {
    "country_code": "AR",
    "region_name": "Formosa",
    "iata": "LLS",
    "icao": "SATK",
    "airport": "Alferez Armando Rodriguez Airport",
    "latitude": -24.7214,
    "longitude": -60.5488
  },
  {
    "country_code": "AR",
    "region_name": "Cordoba",
    "iata": "RCU",
    "icao": "SAOC",
    "airport": "Las Higueras Airport",
    "latitude": -33.0851,
    "longitude": -64.2613
  },
  {
    "country_code": "AR",
    "region_name": "Santa Fe",
    "iata": "NCJ",
    "icao": "SAFS",
    "airport": "Sunchales Airport",
    "latitude": -30.9575,
    "longitude": -61.5283
  },
  {
    "country_code": "AR",
    "region_name": "Buenos Aires",
    "iata": "MJR",
    "icao": "",
    "airport": "Miramar Airport",
    "latitude": -38.2271,
    "longitude": -57.8697
  },
  {
    "country_code": "AR",
    "region_name": "Neuquen",
    "iata": "RDS",
    "icao": "SAHS",
    "airport": "Rincon de los Sauces Airport",
    "latitude": -37.3906,
    "longitude": -68.9042
  },
  {
    "country_code": "AR",
    "region_name": "Chubut",
    "iata": "REL",
    "icao": "SAVT",
    "airport": "Almirante Marcos A. Zar Airport",
    "latitude": -43.2105,
    "longitude": -65.2703
  },
  {
    "country_code": "AR",
    "region_name": "Cordoba",
    "iata": "VDR",
    "icao": "SAOD",
    "airport": "Villa Dolores Airport",
    "latitude": -31.9452,
    "longitude": -65.1463
  },
  {
    "country_code": "AR",
    "region_name": "Corrientes",
    "iata": "MCS",
    "icao": "SARM",
    "airport": "Monte Caseros Airport",
    "latitude": -30.2719,
    "longitude": -57.6402
  },
  {
    "country_code": "AR",
    "region_name": "Santa Cruz",
    "iata": "LHS",
    "icao": "SAVH",
    "airport": "Las Heras Airport",
    "latitude": -46.5383,
    "longitude": -68.9653
  },
  {
    "country_code": "AR",
    "region_name": "Mendoza",
    "iata": "LGS",
    "icao": "SAMM",
    "airport": "Comodoro D. Ricardo Salomon Airport",
    "latitude": -35.4936,
    "longitude": -69.5743
  },
  {
    "country_code": "AR",
    "region_name": "Buenos Aires",
    "iata": "BHI",
    "icao": "SAZB",
    "airport": "Comandante Espora Airport",
    "latitude": -38.725,
    "longitude": -62.1693
  },
  {
    "country_code": "AR",
    "region_name": "Buenos Aires",
    "iata": "MDQ",
    "icao": "SAZM",
    "airport": "Astor Piazzolla International Airport",
    "latitude": -37.9342,
    "longitude": -57.5733
  },
  {
    "country_code": "AR",
    "region_name": "Neuquen",
    "iata": "LCP",
    "icao": "",
    "airport": "Loncopue Airport",
    "latitude": -38.0819,
    "longitude": -70.6439
  },
  {
    "country_code": "AR",
    "region_name": "Cordoba",
    "iata": "LCM",
    "icao": "SACC",
    "airport": "La Cumbre Airport",
    "latitude": -31.0058,
    "longitude": -64.5319
  },
  {
    "country_code": "AR",
    "region_name": "Chaco",
    "iata": "RES",
    "icao": "SARE",
    "airport": "Resistencia International Airport",
    "latitude": -27.45,
    "longitude": -59.0561
  },
  {
    "country_code": "AR",
    "region_name": "Neuquen",
    "iata": "NQN",
    "icao": "SAZN",
    "airport": "Presidente Peron International Air",
    "latitude": -38.949,
    "longitude": -68.1557
  },
  {
    "country_code": "AR",
    "region_name": "Corrientes",
    "iata": "MDX",
    "icao": "SATM",
    "airport": "Mercedes Airport",
    "latitude": -29.2214,
    "longitude": -58.0878
  },
  {
    "country_code": "AR",
    "region_name": "Neuquen",
    "iata": "CVH",
    "icao": "",
    "airport": "Caviahue Airport",
    "latitude": -37.8514,
    "longitude": -71.0092
  },
  {
    "country_code": "AR",
    "region_name": "Santa Cruz",
    "iata": "CVI",
    "icao": "",
    "airport": "Caleta Olivia Airport",
    "latitude": -46.4318,
    "longitude": -67.5186
  },
  {
    "country_code": "AR",
    "region_name": "Rio Negro",
    "iata": "VDM",
    "icao": "SAVV",
    "airport": "Gobernador Edgardo Castello Airport",
    "latitude": -40.8692,
    "longitude": -63.0004
  },
  {
    "country_code": "AR",
    "region_name": "Tierra del Fuego",
    "iata": "RGA",
    "icao": "SAWE",
    "airport": "Hermes Quijada International Airport",
    "latitude": -53.7777,
    "longitude": -67.7494
  },
  {
    "country_code": "AR",
    "region_name": "Santa Cruz",
    "iata": "RGL",
    "icao": "SAWG",
    "airport": "Piloto Civil Norberto Fernandez International Airport",
    "latitude": -51.6089,
    "longitude": -69.3126
  },
  {
    "country_code": "AR",
    "region_name": "Chubut",
    "iata": "EQS",
    "icao": "SAVE",
    "airport": "Esquel Airport",
    "latitude": -42.908,
    "longitude": -71.1395
  },
  {
    "country_code": "AR",
    "region_name": "Mendoza",
    "iata": "MDZ",
    "icao": "SAME",
    "airport": "Gov. Francisco Gabrielli International Airport (El Plumerillo)",
    "latitude": -32.8317,
    "longitude": -68.7929
  },
  {
    "country_code": "AR",
    "region_name": "Santiago del Estero",
    "iata": "RHD",
    "icao": "SANR",
    "airport": "Termas de Rio Hondo Airport",
    "latitude": -27.4966,
    "longitude": -64.936
  },
  {
    "country_code": "AR",
    "region_name": "Corrientes",
    "iata": "AOL",
    "icao": "SARL",
    "airport": "Paso de los Libres Airport",
    "latitude": -29.6894,
    "longitude": -57.1521
  },
  {
    "country_code": "AR",
    "region_name": "Misiones",
    "iata": "IGR",
    "icao": "SARI",
    "airport": "Cataratas del Iguazu International Airport",
    "latitude": -25.7373,
    "longitude": -54.4734
  },
  {
    "country_code": "AR",
    "region_name": "Chaco",
    "iata": "CNT",
    "icao": "",
    "airport": "Charata Airport",
    "latitude": -27.2164,
    "longitude": -61.2103
  },
  {
    "country_code": "AR",
    "region_name": "Rio Negro",
    "iata": "CCT",
    "icao": "",
    "airport": "Colonia Catriel Airport",
    "latitude": -37.9102,
    "longitude": -67.835
  },
  {
    "country_code": "AR",
    "region_name": "Rio Negro",
    "iata": "VCF",
    "icao": "",
    "airport": "Valcheta Airport",
    "latitude": -40.7,
    "longitude": -66.15
  },
  {
    "country_code": "AR",
    "region_name": "Rio Negro",
    "iata": "IGB",
    "icao": "SAVJ",
    "airport": "Ingeniero Jacobacci Airport (Capitan FAA H. R. Borden Airport)",
    "latitude": -41.3209,
    "longitude": -69.5749
  },
  {
    "country_code": "AR",
    "region_name": "Buenos Aires",
    "iata": "NEC",
    "icao": "SAZO",
    "airport": "Necochea Airport",
    "latitude": -38.4831,
    "longitude": -58.8172
  },
  {
    "country_code": "AR",
    "region_name": "Buenos Aires",
    "iata": "AEP",
    "icao": "SABE",
    "airport": "Aeroparque Internacional Jorge Newbery",
    "latitude": -34.5589,
    "longitude": -58.4164
  },
  {
    "country_code": "AR",
    "region_name": "Buenos Aires",
    "iata": "EZE",
    "icao": "SAEZ",
    "airport": "Ministro Pistarini International Airport",
    "latitude": -34.8222,
    "longitude": -58.5358
  },
  {
    "country_code": "AS",
    "region_name": "Eastern District",
    "iata": "PPG",
    "icao": "NSTU",
    "airport": "Pago Pago International Airport",
    "latitude": -14.331,
    "longitude": -170.71
  },
  {
    "country_code": "AS",
    "region_name": "Eastern District",
    "iata": "TAV",
    "icao": "",
    "airport": "Tau Airport",
    "latitude": -14.2292,
    "longitude": -169.511
  },
  {
    "country_code": "AS",
    "region_name": "Eastern District",
    "iata": "OFU",
    "icao": "NSAS",
    "airport": "Ofu Airport",
    "latitude": -14.1844,
    "longitude": -169.67
  },
  {
    "country_code": "AT",
    "region_name": "Oberosterreich",
    "iata": "LNZ",
    "icao": "LOWL",
    "airport": "Linz Airport (Blue Danube Airport)",
    "latitude": 48.2332,
    "longitude": 14.1875
  },
  {
    "country_code": "AT",
    "region_name": "Salzburg",
    "iata": "SZG",
    "icao": "LOWS",
    "airport": "Salzburg Airport",
    "latitude": 47.7933,
    "longitude": 13.0043
  },
  {
    "country_code": "AT",
    "region_name": "Karnten",
    "iata": "KLU",
    "icao": "LOWK",
    "airport": "Klagenfurt Airport",
    "latitude": 46.6425,
    "longitude": 14.3377
  },
  {
    "country_code": "AT",
    "region_name": "Steiermark",
    "iata": "GRZ",
    "icao": "LOWG",
    "airport": "Graz Airport",
    "latitude": 46.9911,
    "longitude": 15.4396
  },
  {
    "country_code": "AT",
    "region_name": "Tirol",
    "iata": "INN",
    "icao": "LOWI",
    "airport": "Innsbruck Airport (Kranebitten Airport)",
    "latitude": 47.2602,
    "longitude": 11.344
  },
  {
    "country_code": "AT",
    "region_name": "Niederosterreich",
    "iata": "VIE",
    "icao": "LOWW",
    "airport": "Vienna International Airport",
    "latitude": 48.1103,
    "longitude": 16.5697
  },
  {
    "country_code": "AT",
    "region_name": "Vorarlberg",
    "iata": "HOH",
    "icao": "LOIH",
    "airport": "Hohenems-Dornbirn Airport",
    "latitude": 47.385,
    "longitude": 9.7
  },
  {
    "country_code": "AU",
    "region_name": "Queensland",
    "iata": "PHQ",
    "icao": "YTMO",
    "airport": "The Monument Airport",
    "latitude": -21.8111,
    "longitude": 139.924
  },
  {
    "country_code": "AU",
    "region_name": "Western Australia",
    "iata": "CBC",
    "icao": "",
    "airport": "Cherrabun Airport",
    "latitude": -18.9178,
    "longitude": 125.538
  },
  {
    "country_code": "AU",
    "region_name": "Northern Territory",
    "iata": "MSF",
    "icao": "YMNS",
    "airport": "Mount Swan Airport",
    "latitude": -22.6247,
    "longitude": 135.035
  },
  {
    "country_code": "AU",
    "region_name": "Queensland",
    "iata": "AAB",
    "icao": "YARY",
    "airport": "Arrabury Airport",
    "latitude": -26.693,
    "longitude": 141.048
  },
  {
    "country_code": "AU",
    "region_name": "Queensland",
    "iata": "XTO",
    "icao": "YTAM",
    "airport": "Taroom Airport",
    "latitude": -25.8017,
    "longitude": 149.9
  },
  {
    "country_code": "AU",
    "region_name": "Western Australia",
    "iata": "MXU",
    "icao": "YMWA",
    "airport": "Mullewa Airport",
    "latitude": -28.475,
    "longitude": 115.517
  },
  {
    "country_code": "AU",
    "region_name": "South Australia",
    "iata": "CED",
    "icao": "YCDU",
    "airport": "Ceduna Airport",
    "latitude": -32.1306,
    "longitude": 133.71
  },
  {
    "country_code": "AU",
    "region_name": "Queensland",
    "iata": "RSB",
    "icao": "YRSB",
    "airport": "Roseberth Airport",
    "latitude": -25.8333,
    "longitude": 139.65
  },
  {
    "country_code": "AU",
    "region_name": "Queensland",
    "iata": "HVB",
    "icao": "YHBA",
    "airport": "Hervey Bay Airport",
    "latitude": -25.3189,
    "longitude": 152.88
  },
  {
    "country_code": "AU",
    "region_name": "Northern Territory",
    "iata": "RRV",
    "icao": "",
    "airport": "Robinson River Airport (Northern Territory)",
    "latitude": -16.7183,
    "longitude": 136.945
  },
  {
    "country_code": "AU",
    "region_name": "South Australia",
    "iata": "RRE",
    "icao": "YMRE",
    "airport": "Marree Airport",
    "latitude": -29.6633,
    "longitude": 138.065
  },
  {
    "country_code": "AU",
    "region_name": "Western Australia",
    "iata": "DCN",
    "icao": "YCIN",
    "airport": "RAAF Base Curtin",
    "latitude": -17.5814,
    "longitude": 123.828
  },
  {
    "country_code": "AU",
    "region_name": "Northern Territory",
    "iata": "RPV",
    "icao": "",
    "airport": "Roper Valley Airport",
    "latitude": -14.9215,
    "longitude": 134.05
  },
  {
    "country_code": "AU",
    "region_name": "Queensland",
    "iata": "XTG",
    "icao": "YTGM",
    "airport": "Thargomindah Airport",
    "latitude": -27.9864,
    "longitude": 143.811
  },
  {
    "country_code": "AU",
    "region_name": "South Australia",
    "iata": "HWK",
    "icao": "YHAW",
    "airport": "Wilpena Pound Airport",
    "latitude": -31.8559,
    "longitude": 138.468
  },
  {
    "country_code": "AU",
    "region_name": "Queensland",
    "iata": "MXD",
    "icao": "YMWX",
    "airport": "Marion Downs Airport",
    "latitude": -23.3637,
    "longitude": 139.65
  },
  {
    "country_code": "AU",
    "region_name": "Northern Territory",
    "iata": "RPM",
    "icao": "YNGU",
    "airport": "Ngukurr Airport",
    "latitude": -14.7228,
    "longitude": 134.747
  },
  {
    "country_code": "AU",
    "region_name": "New South Wales",
    "iata": "HXX",
    "icao": "YHAY",
    "airport": "Hay Airport",
    "latitude": -34.5314,
    "longitude": 144.83
  },
  {
    "country_code": "AU",
    "region_name": "Queensland",
    "iata": "DDN",
    "icao": "YDLT",
    "airport": "Delta Downs Airport",
    "latitude": -16.9917,
    "longitude": 141.317
  },
  {
    "country_code": "AU",
    "region_name": "New South Wales",
    "iata": "CES",
    "icao": "YCNK",
    "airport": "Cessnock Airport",
    "latitude": -32.7875,
    "longitude": 151.342
  },
  {
    "country_code": "AU",
    "region_name": "Northern Territory",
    "iata": "RPB",
    "icao": "YRRB",
    "airport": "Roper Bar Airport",
    "latitude": -14.7348,
    "longitude": 134.525
  },
  {
    "country_code": "AU",
    "region_name": "Queensland",
    "iata": "ROK",
    "icao": "YBRK",
    "airport": "Rockhampton Airport",
    "latitude": -23.3819,
    "longitude": 150.475
  },
  {
    "country_code": "AU",
    "region_name": "Queensland",
    "iata": "ROH",
    "icao": "YROB",
    "airport": "Robinhood Airport",
    "latitude": -18.845,
    "longitude": 143.71
  },
  {
    "country_code": "AU",
    "region_name": "Queensland",
    "iata": "MWY",
    "icao": "YMIR",
    "airport": "Miranda Downs Airport",
    "latitude": -17.3289,
    "longitude": 141.886
  },
  {
    "country_code": "AU",
    "region_name": "Queensland",
    "iata": "LRE",
    "icao": "YLRE",
    "airport": "Longreach Airport",
    "latitude": -23.4342,
    "longitude": 144.28
  },
  {
    "country_code": "AU",
    "region_name": "South Australia",
    "iata": "RMK",
    "icao": "YREN",
    "airport": "Renmark Airport",
    "latitude": -34.1964,
    "longitude": 140.674
  },
  {
    "country_code": "AU",
    "region_name": "Queensland",
    "iata": "RMA",
    "icao": "YROM",
    "airport": "Roma Airport",
    "latitude": -26.545,
    "longitude": 148.775
  },
  {
    "country_code": "AU",
    "region_name": "South Australia",
    "iata": "MWT",
    "icao": "YMWT",
    "airport": "Moolawatana Airport",
    "latitude": -29.9069,
    "longitude": 139.765
  },
  {
    "country_code": "AU",
    "region_name": "Queensland",
    "iata": "RLP",
    "icao": "",
    "airport": "Rosella Plains Airport",
    "latitude": -18.4253,
    "longitude": 144.459
  },
  {
    "country_code": "AU",
    "region_name": "Queensland",
    "iata": "ABG",
    "icao": "YABI",
    "airport": "Abingdon Airport",
    "latitude": -17.6167,
    "longitude": 143.167
  },
  {
    "country_code": "AU",
    "region_name": "Queensland",
    "iata": "ABH",
    "icao": "YAPH",
    "airport": "Alpha Airport",
    "latitude": -23.6461,
    "longitude": 146.584
  },
  {
    "country_code": "AU",
    "region_name": "New South Wales",
    "iata": "XRH",
    "icao": "YSRI",
    "airport": "RAAF Base Richmond",
    "latitude": -33.6006,
    "longitude": 150.781
  },
  {
    "country_code": "AU",
    "region_name": "Queensland",
    "iata": "RKY",
    "icao": "",
    "airport": "Rokeby Airport",
    "latitude": -13.6434,
    "longitude": 142.641
  },
  {
    "country_code": "AU",
    "region_name": "South Australia",
    "iata": "IDK",
    "icao": "YIDK",
    "airport": "Indulkana Airport",
    "latitude": -26.9667,
    "longitude": 133.325
  },
  {
    "country_code": "AU",
    "region_name": "Western Australia",
    "iata": "MWB",
    "icao": "YMRW",
    "airport": "Morawa Airport",
    "latitude": -29.2017,
    "longitude": 116.022
  },
  {
    "country_code": "AU",
    "region_name": "Queensland",
    "iata": "ABM",
    "icao": "YNPE",
    "airport": "Northern Peninsula Airport",
    "latitude": -10.9508,
    "longitude": 142.459
  },
  {
    "country_code": "AU",
    "region_name": "Queensland",
    "iata": "IFF",
    "icao": "YIFY",
    "airport": "Iffley Airport",
    "latitude": -18.9,
    "longitude": 141.217
  },
  {
    "country_code": "AU",
    "region_name": "Queensland",
    "iata": "IFL",
    "icao": "YIFL",
    "airport": "Innisfail Airport",
    "latitude": -17.5594,
    "longitude": 146.012
  },
  {
    "country_code": "AU",
    "region_name": "Queensland",
    "iata": "IGH",
    "icao": "YIGM",
    "airport": "Ingham Airport",
    "latitude": -18.6606,
    "longitude": 146.152
  },
  {
    "country_code": "AU",
    "region_name": "New South Wales",
    "iata": "BHQ",
    "icao": "YBHI",
    "airport": "Broken Hill Airport",
    "latitude": -32.0014,
    "longitude": 141.472
  },
  {
    "country_code": "AU",
    "region_name": "Western Australia",
    "iata": "ZNE",
    "icao": "YNWN",
    "airport": "Newman Airport",
    "latitude": -23.4178,
    "longitude": 119.803
  },
  {
    "country_code": "AU",
    "region_name": "New South Wales",
    "iata": "BHS",
    "icao": "YBTH",
    "airport": "Bathurst Airport",
    "latitude": -33.4094,
    "longitude": 149.652
  },
  {
    "country_code": "AU",
    "region_name": "Queensland",
    "iata": "BHT",
    "icao": "",
    "airport": "Brighton Downs Airport",
    "latitude": -23.3639,
    "longitude": 141.563
  },
  {
    "country_code": "AU",
    "region_name": "South Australia",
    "iata": "CFH",
    "icao": "",
    "airport": "Clifton Hills Airport",
    "latitude": -27.0183,
    "longitude": 138.892
  },
  {
    "country_code": "AU",
    "region_name": "Northern Territory",
    "iata": "CFI",
    "icao": "YCFD",
    "airport": "Camfield Airport",
    "latitude": -17.0217,
    "longitude": 131.327
  },
  {
    "country_code": "AU",
    "region_name": "New South Wales",
    "iata": "ABX",
    "icao": "YMAY",
    "airport": "Albury Airport",
    "latitude": -36.0678,
    "longitude": 146.958
  },
  {
    "country_code": "AU",
    "region_name": "Queensland",
    "iata": "MVU",
    "icao": "YMGV",
    "airport": "Musgrave Airport",
    "latitude": -14.7757,
    "longitude": 143.505
  },
  {
    "country_code": "AU",
    "region_name": "Western Australia",
    "iata": "RHL",
    "icao": "YRYH",
    "airport": "Roy Hill Station Airport",
    "latitude": -22.6258,
    "longitude": 119.959
  },
  {
    "country_code": "AU",
    "region_name": "Queensland",
    "iata": "IKP",
    "icao": "YIKM",
    "airport": "Inkerman Airport",
    "latitude": -16.275,
    "longitude": 141.442
  },
  {
    "country_code": "AU",
    "region_name": "Queensland",
    "iata": "INJ",
    "icao": "YINJ",
    "airport": "Injune Airport",
    "latitude": -25.851,
    "longitude": 148.55
  },
  {
    "country_code": "AU",
    "region_name": "Queensland",
    "iata": "CFP",
    "icao": "",
    "airport": "Carpentaria Downs Airport",
    "latitude": -18.7167,
    "longitude": 144.317
  },
  {
    "country_code": "AU",
    "region_name": "South Australia",
    "iata": "RCN",
    "icao": "",
    "airport": "American River Airport",
    "latitude": -35.7574,
    "longitude": 137.776
  },
  {
    "country_code": "AU",
    "region_name": "Queensland",
    "iata": "DFP",
    "icao": "",
    "airport": "Drumduff Airport",
    "latitude": -16.053,
    "longitude": 143.012
  },
  {
    "country_code": "AU",
    "region_name": "New South Wales",
    "iata": "CFS",
    "icao": "YCFS",
    "airport": "Coffs Harbour Airport",
    "latitude": -30.3206,
    "longitude": 153.116
  },
  {
    "country_code": "AU",
    "region_name": "Queensland",
    "iata": "RCM",
    "icao": "YRMD",
    "airport": "Richmond Airport",
    "latitude": -20.7019,
    "longitude": 143.115
  },
  {
    "country_code": "AU",
    "region_name": "South Australia",
    "iata": "INM",
    "icao": "YINN",
    "airport": "Innamincka Airport",
    "latitude": -27.7,
    "longitude": 140.733
  },
  {
    "country_code": "AU",
    "region_name": "Western Australia",
    "iata": "RBU",
    "icao": "YROE",
    "airport": "Roebourne Airport",
    "latitude": -20.7617,
    "longitude": 117.157
  },
  {
    "country_code": "AU",
    "region_name": "Western Australia",
    "iata": "DGD",
    "icao": "YDGA",
    "airport": "Dalgaranga Airport",
    "latitude": -27.8303,
    "longitude": 117.316
  },
  {
    "country_code": "AU",
    "region_name": "New South Wales",
    "iata": "DGE",
    "icao": "YMDG",
    "airport": "Mudgee Airport",
    "latitude": -32.5625,
    "longitude": 149.611
  },
  {
    "country_code": "AU",
    "region_name": "Victoria",
    "iata": "RBS",
    "icao": "YORB",
    "airport": "Orbost Airport",
    "latitude": -37.79,
    "longitude": 148.61
  },
  {
    "country_code": "AU",
    "region_name": "Victoria",
    "iata": "RBC",
    "icao": "YROI",
    "airport": "Robinvale Airport",
    "latitude": -34.65,
    "longitude": 142.783
  },
  {
    "country_code": "AU",
    "region_name": "South Australia",
    "iata": "MVK",
    "icao": "YMUK",
    "airport": "Mulka Airport",
    "latitude": -28.3478,
    "longitude": 138.65
  },
  {
    "country_code": "AU",
    "region_name": "New South Wales",
    "iata": "MVH",
    "icao": "",
    "airport": "Macksville Airport",
    "latitude": -30.7,
    "longitude": 152.917
  },
  {
    "country_code": "AU",
    "region_name": "Queensland",
    "iata": "IRG",
    "icao": "YLHR",
    "airport": "Lockhart River Airport",
    "latitude": -12.7869,
    "longitude": 143.305
  },
  {
    "country_code": "AU",
    "region_name": "Queensland",
    "iata": "XMY",
    "icao": "YYMI",
    "airport": "Yam Island Airport",
    "latitude": -9.90111,
    "longitude": 142.776
  },
  {
    "country_code": "AU",
    "region_name": "Queensland",
    "iata": "BIP",
    "icao": "",
    "airport": "Bulimba Airport",
    "latitude": -16.8808,
    "longitude": 143.479
  },
  {
    "country_code": "AU",
    "region_name": "Northern Territory",
    "iata": "RAM",
    "icao": "YRNG",
    "airport": "Ramingining Airport",
    "latitude": -12.3564,
    "longitude": 134.898
  },
  {
    "country_code": "AU",
    "region_name": "Queensland",
    "iata": "ISA",
    "icao": "YBMA",
    "airport": "Mount Isa Airport",
    "latitude": -20.6639,
    "longitude": 139.489
  },
  {
    "country_code": "AU",
    "region_name": "Queensland",
    "iata": "ISI",
    "icao": "YISF",
    "airport": "Isisford Airport",
    "latitude": -24.2583,
    "longitude": 144.425
  },
  {
    "country_code": "AU",
    "region_name": "South Australia",
    "iata": "XML",
    "icao": "YMIN",
    "airport": "Minlaton Airport",
    "latitude": -34.75,
    "longitude": 137.533
  },
  {
    "country_code": "AU",
    "region_name": "New South Wales",
    "iata": "IVR",
    "icao": "YIVL",
    "airport": "Inverell Airport",
    "latitude": -29.8883,
    "longitude": 151.144
  },
  {
    "country_code": "AU",
    "region_name": "Western Australia",
    "iata": "YNN",
    "icao": "",
    "airport": "Yandicoogina Airport",
    "latitude": 59.4875,
    "longitude": -97.7803
  },
  {
    "country_code": "AU",
    "region_name": "Western Australia",
    "iata": "BIW",
    "icao": "",
    "airport": "Billiluna Airport",
    "latitude": -19.5667,
    "longitude": 127.667
  },
  {
    "country_code": "AU",
    "region_name": "Victoria",
    "iata": "XMC",
    "icao": "YMCO",
    "airport": "Mallacoota Airport",
    "latitude": -37.5983,
    "longitude": 149.72
  },
  {
    "country_code": "AU",
    "region_name": "Northern Territory",
    "iata": "IVW",
    "icao": "YINW",
    "airport": "Inverway Airport",
    "latitude": -17.8411,
    "longitude": 129.643
  },
  {
    "country_code": "AU",
    "region_name": "Tasmania",
    "iata": "LST",
    "icao": "YMLT",
    "airport": "Launceston Airport",
    "latitude": -41.5453,
    "longitude": 147.214
  },
  {
    "country_code": "AU",
    "region_name": "South Australia",
    "iata": "PXH",
    "icao": "YPMH",
    "airport": "Prominent Hill Airport",
    "latitude": -29.716,
    "longitude": 135.524
  },
  {
    "country_code": "AU",
    "region_name": "Queensland",
    "iata": "DHD",
    "icao": "YDRH",
    "airport": "Durham Downs Airport",
    "latitude": -27.075,
    "longitude": 141.9
  },
  {
    "country_code": "AU",
    "region_name": "South Australia",
    "iata": "ADL",
    "icao": "YPAD",
    "airport": "Adelaide Airport",
    "latitude": -34.945,
    "longitude": 138.531
  },
  {
    "country_code": "AU",
    "region_name": "Northern Territory",
    "iata": "JAB",
    "icao": "YJAB",
    "airport": "Jabiru Airport",
    "latitude": -12.6583,
    "longitude": 132.893
  },
  {
    "country_code": "AU",
    "region_name": "Western Australia",
    "iata": "JAD",
    "icao": "YPJT",
    "airport": "Jandakot Airport",
    "latitude": -32.0975,
    "longitude": 115.881
  },
  {
    "country_code": "AU",
    "region_name": "South Australia",
    "iata": "ADO",
    "icao": "YAMK",
    "airport": "Andamooka Airport",
    "latitude": -30.4383,
    "longitude": 137.137
  },
  {
    "country_code": "AU",
    "region_name": "New South Wales",
    "iata": "LSY",
    "icao": "YLIS",
    "airport": "Lismore Airport",
    "latitude": -28.8303,
    "longitude": 153.26
  },
  {
    "country_code": "AU",
    "region_name": "Western Australia",
    "iata": "CGV",
    "icao": "YCAG",
    "airport": "Caiguna Airport",
    "latitude": -32.265,
    "longitude": 125.493
  },
  {
    "country_code": "AU",
    "region_name": "Queensland",
    "iata": "JCK",
    "icao": "YJLC",
    "airport": "Julia Creek Airport",
    "latitude": -20.6683,
    "longitude": 141.723
  },
  {
    "country_code": "AU",
    "region_name": "Tasmania",
    "iata": "LTB",
    "icao": "",
    "airport": "Latrobe Airport",
    "latitude": -41.2352,
    "longitude": 146.396
  },
  {
    "country_code": "AU",
    "region_name": "Western Australia",
    "iata": "MUQ",
    "icao": "YMUC",
    "airport": "Muccan Station Airport",
    "latitude": -20.6589,
    "longitude": 120.067
  },
  {
    "country_code": "AU",
    "region_name": "Queensland",
    "iata": "ZGL",
    "icao": "YSGW",
    "airport": "South Galway Airport",
    "latitude": -25.6833,
    "longitude": 142.108
  },
  {
    "country_code": "AU",
    "region_name": "Northern Territory",
    "iata": "MUP",
    "icao": "YMUP",
    "airport": "Mulga Park Airport",
    "latitude": -25.86,
    "longitude": 131.65
  },
  {
    "country_code": "AU",
    "region_name": "South Australia",
    "iata": "PUG",
    "icao": "YPAG",
    "airport": "Port Augusta Airport",
    "latitude": -32.5069,
    "longitude": 137.717
  },
  {
    "country_code": "AU",
    "region_name": "Victoria",
    "iata": "PTJ",
    "icao": "YPOD",
    "airport": "Portland Airport",
    "latitude": -38.3181,
    "longitude": 141.471
  },
  {
    "country_code": "AU",
    "region_name": "Western Australia",
    "iata": "PRD",
    "icao": "YPDO",
    "airport": "Pardoo Airport",
    "latitude": -20.1175,
    "longitude": 119.59
  },
  {
    "country_code": "AU",
    "region_name": "New South Wales",
    "iata": "PQQ",
    "icao": "YPMQ",
    "airport": "Port Macquarie Airport",
    "latitude": -31.4358,
    "longitude": 152.863
  },
  {
    "country_code": "AU",
    "region_name": "Queensland",
    "iata": "PPP",
    "icao": "YBPN",
    "airport": "Whitsunday Coast Airport",
    "latitude": -20.495,
    "longitude": 148.552
  },
  {
    "country_code": "AU",
    "region_name": "South Australia",
    "iata": "PPI",
    "icao": "YPIR",
    "airport": "Port Pirie Airport",
    "latitude": -33.2389,
    "longitude": 137.995
  },
  {
    "country_code": "AU",
    "region_name": "Queensland",
    "iata": "JUN",
    "icao": "YJDA",
    "airport": "Jundah Airport",
    "latitude": -24.8417,
    "longitude": 143.058
  },
  {
    "country_code": "AU",
    "region_name": "Western Australia",
    "iata": "JUR",
    "icao": "YJNB",
    "airport": "Jurien Bay Airport",
    "latitude": -30.3016,
    "longitude": 115.056
  },
  {
    "country_code": "AU",
    "region_name": "Western Australia",
    "iata": "KAX",
    "icao": "YKBR",
    "airport": "Kalbarri Airport",
    "latitude": -27.6928,
    "longitude": 114.259
  },
  {
    "country_code": "AU",
    "region_name": "Northern Territory",
    "iata": "KBB",
    "icao": "",
    "airport": "Kirkimbie Airport",
    "latitude": -17.7792,
    "longitude": 129.21
  },
  {
    "country_code": "AU",
    "region_name": "Western Australia",
    "iata": "KBD",
    "icao": "",
    "airport": "Kimberley Downs Airport",
    "latitude": -17.3978,
    "longitude": 124.355
  },
  {
    "country_code": "AU",
    "region_name": "Queensland",
    "iata": "LTP",
    "icao": "YLHS",
    "airport": "Lyndhurst Airport",
    "latitude": -19.1958,
    "longitude": 144.371
  },
  {
    "country_code": "AU",
    "region_name": "Northern Territory",
    "iata": "KBJ",
    "icao": "YKCA",
    "airport": "Kings Canyon Airport",
    "latitude": -24.26,
    "longitude": 131.49
  },
  {
    "country_code": "AU",
    "region_name": "Queensland",
    "iata": "PMK",
    "icao": "YPAM",
    "airport": "Palm Island Airport",
    "latitude": -18.7553,
    "longitude": 146.581
  },
  {
    "country_code": "AU",
    "region_name": "South Australia",
    "iata": "KBY",
    "icao": "YKBY",
    "airport": "Streaky Bay Airport",
    "latitude": -32.8358,
    "longitude": 134.293
  },
  {
    "country_code": "AU",
    "region_name": "Queensland",
    "iata": "KCE",
    "icao": "YCSV",
    "airport": "Collinsville Airport",
    "latitude": -20.5967,
    "longitude": 147.86
  },
  {
    "country_code": "AU",
    "region_name": "South Australia",
    "iata": "PLO",
    "icao": "YPLC",
    "airport": "Port Lincoln Airport",
    "latitude": -34.6053,
    "longitude": 135.88
  },
  {
    "country_code": "AU",
    "region_name": "Northern Territory",
    "iata": "KCS",
    "icao": "YKCS",
    "airport": "Kings Creek Station Airport",
    "latitude": -24.4233,
    "longitude": 131.835
  },
  {
    "country_code": "AU",
    "region_name": "Northern Territory",
    "iata": "PKT",
    "icao": "YKPT",
    "airport": "Port Keats Airfield",
    "latitude": -14.25,
    "longitude": 129.529
  },
  {
    "country_code": "AU",
    "region_name": "Queensland",
    "iata": "LTV",
    "icao": "YLOV",
    "airport": "Lotus Vale Station Airport",
    "latitude": -17.0483,
    "longitude": 141.376
  },
  {
    "country_code": "AU",
    "region_name": "Western Australia",
    "iata": "KDB",
    "icao": "YKBL",
    "airport": "Kambalda Airport",
    "latitude": -31.1907,
    "longitude": 121.598
  },
  {
    "country_code": "AU",
    "region_name": "Queensland",
    "iata": "KDS",
    "icao": "",
    "airport": "Kamaran Downs Airport",
    "latitude": -24.3388,
    "longitude": 139.279
  },
  {
    "country_code": "AU",
    "region_name": "New South Wales",
    "iata": "PKE",
    "icao": "YPKS",
    "airport": "Parkes Airport",
    "latitude": -33.1314,
    "longitude": 148.239
  },
  {
    "country_code": "AU",
    "region_name": "Western Australia",
    "iata": "PHE",
    "icao": "YPPD",
    "airport": "Port Hedland International Airport",
    "latitude": -20.3778,
    "longitude": 118.626
  },
  {
    "country_code": "AU",
    "region_name": "Queensland",
    "iata": "MFL",
    "icao": "",
    "airport": "Mount Full Stop Airport",
    "latitude": -19.67,
    "longitude": 144.885
  },
  {
    "country_code": "AU",
    "region_name": "Queensland",
    "iata": "ZBO",
    "icao": "YBWN",
    "airport": "Bowen Airport",
    "latitude": -20.0183,
    "longitude": 148.215
  },
  {
    "country_code": "AU",
    "region_name": "Western Australia",
    "iata": "KFE",
    "icao": "YFDF",
    "airport": "Fortescue Dave Forrest Airport",
    "latitude": -22.2908,
    "longitude": 119.437
  },
  {
    "country_code": "AU",
    "region_name": "Queensland",
    "iata": "MTQ",
    "icao": "YMIT",
    "airport": "Mitchell Airport",
    "latitude": -26.4833,
    "longitude": 147.937
  },
  {
    "country_code": "AU",
    "region_name": "New South Wales",
    "iata": "MTL",
    "icao": "YMND",
    "airport": "Maitland Airport",
    "latitude": -32.7013,
    "longitude": 151.493
  },
  {
    "country_code": "AU",
    "region_name": "Queensland",
    "iata": "ZBL",
    "icao": "",
    "airport": "Biloela Airport",
    "latitude": -24.4,
    "longitude": 150.51
  },
  {
    "country_code": "AU",
    "region_name": "Northern Territory",
    "iata": "KFG",
    "icao": "YKKG",
    "airport": "Kalkgurung Airport",
    "latitude": -17.4319,
    "longitude": 130.808
  },
  {
    "country_code": "AU",
    "region_name": "South Australia",
    "iata": "KGC",
    "icao": "YKSC",
    "airport": "Kingscote Airport",
    "latitude": -35.7139,
    "longitude": 137.521
  },
  {
    "country_code": "AU",
    "region_name": "Queensland",
    "iata": "BKP",
    "icao": "YBAW",
    "airport": "Barkly Downs Airport",
    "latitude": -20.4958,
    "longitude": 138.475
  },
  {
    "country_code": "AU",
    "region_name": "Queensland",
    "iata": "BKQ",
    "icao": "YBCK",
    "airport": "Blackall Airport",
    "latitude": -24.4278,
    "longitude": 145.429
  },
  {
    "country_code": "AU",
    "region_name": "Western Australia",
    "iata": "KGI",
    "icao": "YPKG",
    "airport": "Kalgoorlie-Boulder Airport",
    "latitude": -30.7894,
    "longitude": 121.462
  },
  {
    "country_code": "AU",
    "region_name": "Western Australia",
    "iata": "CIE",
    "icao": "YCOI",
    "airport": "Collie Airport",
    "latitude": -33.3667,
    "longitude": 116.217
  },
  {
    "country_code": "AU",
    "region_name": "South Australia",
    "iata": "PEY",
    "icao": "",
    "airport": "Penong Airport",
    "latitude": -31.9167,
    "longitude": 133
  },
  {
    "country_code": "AU",
    "region_name": "Queensland",
    "iata": "DKI",
    "icao": "YDKI",
    "airport": "Dunk Island Airport",
    "latitude": -17.9417,
    "longitude": 146.14
  },
  {
    "country_code": "AU",
    "region_name": "Northern Territory",
    "iata": "KGR",
    "icao": "",
    "airport": "Kulgera Airport",
    "latitude": -25.8428,
    "longitude": 133.292
  },
  {
    "country_code": "AU",
    "region_name": "Western Australia",
    "iata": "PER",
    "icao": "YPPH",
    "airport": "Perth Airport",
    "latitude": -31.9403,
    "longitude": 115.967
  },
  {
    "country_code": "AU",
    "region_name": "Northern Territory",
    "iata": "PEP",
    "icao": "",
    "airport": "Peppimenarti Airport",
    "latitude": -14.1442,
    "longitude": 130.091
  },
  {
    "country_code": "AU",
    "region_name": "Northern Territory",
    "iata": "DKV",
    "icao": "YDVR",
    "airport": "Docker River Airport",
    "latitude": -24.86,
    "longitude": 129.07
  },
  {
    "country_code": "AU",
    "region_name": "Queensland",
    "iata": "KGY",
    "icao": "YKRY",
    "airport": "Kingaroy Airport",
    "latitude": -26.5808,
    "longitude": 151.841
  },
  {
    "country_code": "AU",
    "region_name": "South Australia",
    "iata": "PEA",
    "icao": "YPSH",
    "airport": "Penneshaw Airport",
    "latitude": -35.7558,
    "longitude": 137.963
  },
  {
    "country_code": "AU",
    "region_name": "South Australia",
    "iata": "PDN",
    "icao": "",
    "airport": "Parndana Airport",
    "latitude": -35.807,
    "longitude": 137.264
  },
  {
    "country_code": "AU",
    "region_name": "South Australia",
    "iata": "PDE",
    "icao": "YPDI",
    "airport": "Pandie Pandie Airport",
    "latitude": -26.1167,
    "longitude": 139.4
  },
  {
    "country_code": "AU",
    "region_name": "Northern Territory",
    "iata": "MTD",
    "icao": "YMSF",
    "airport": "Mount Sandford Station Airport",
    "latitude": -16.9783,
    "longitude": 130.555
  },
  {
    "country_code": "AU",
    "region_name": "Western Australia",
    "iata": "PBO",
    "icao": "YPBO",
    "airport": "Paraburdoo Airport",
    "latitude": -23.1711,
    "longitude": 117.745
  },
  {
    "country_code": "AU",
    "region_name": "Queensland",
    "iata": "AGW",
    "icao": "",
    "airport": "Agnew Airport",
    "latitude": -12.1456,
    "longitude": 142.149
  },
  {
    "country_code": "AU",
    "region_name": "Queensland",
    "iata": "KKP",
    "icao": "YKLB",
    "airport": "Koolburra Airport",
    "latitude": -15.3189,
    "longitude": 143.955
  },
  {
    "country_code": "AU",
    "region_name": "Victoria",
    "iata": "OYN",
    "icao": "YOUY",
    "airport": "Ouyen Airport",
    "latitude": -35.089,
    "longitude": 142.354
  },
  {
    "country_code": "AU",
    "region_name": "Queensland",
    "iata": "LUT",
    "icao": "YLRS",
    "airport": "New Laura Airport",
    "latitude": -15.1833,
    "longitude": 144.367
  },
  {
    "country_code": "AU",
    "region_name": "Queensland",
    "iata": "LUU",
    "icao": "YLRA",
    "airport": "Laura Airport",
    "latitude": -15.55,
    "longitude": 144.45
  },
  {
    "country_code": "AU",
    "region_name": "South Australia",
    "iata": "DLK",
    "icao": "YDLK",
    "airport": "Dulkaninna Airport",
    "latitude": -29.0133,
    "longitude": 138.481
  },
  {
    "country_code": "AU",
    "region_name": "Victoria",
    "iata": "XCO",
    "icao": "YOLA",
    "airport": "Colac Airport",
    "latitude": -38.2867,
    "longitude": 143.68
  },
  {
    "country_code": "AU",
    "region_name": "Queensland",
    "iata": "OXY",
    "icao": "YMNY",
    "airport": "Morney Airport",
    "latitude": -25.3583,
    "longitude": 141.433
  },
  {
    "country_code": "AU",
    "region_name": "Queensland",
    "iata": "OXO",
    "icao": "",
    "airport": "Orientos Airport",
    "latitude": -28.0598,
    "longitude": 141.536
  },
  {
    "country_code": "AU",
    "region_name": "Western Australia",
    "iata": "MGV",
    "icao": "YMGR",
    "airport": "Margaret River Station Airport",
    "latitude": -18.6217,
    "longitude": 126.883
  },
  {
    "country_code": "AU",
    "region_name": "Victoria",
    "iata": "BLN",
    "icao": "YBLA",
    "airport": "Benalla Airport",
    "latitude": -36.5519,
    "longitude": 146.007
  },
  {
    "country_code": "AU",
    "region_name": "Queensland",
    "iata": "KML",
    "icao": "YKML",
    "airport": "Kamileroi Airport",
    "latitude": -19.375,
    "longitude": 140.057
  },
  {
    "country_code": "AU",
    "region_name": "Northern Territory",
    "iata": "DLV",
    "icao": "YDLV",
    "airport": "Delissaville Airport",
    "latitude": -12.55,
    "longitude": 130.685
  },
  {
    "country_code": "AU",
    "region_name": "Queensland",
    "iata": "OSO",
    "icao": "YOSB",
    "airport": "Osborne Mine Airport",
    "latitude": -22.0817,
    "longitude": 140.555
  },
  {
    "country_code": "AU",
    "region_name": "Western Australia",
    "iata": "KNI",
    "icao": "YKNG",
    "airport": "Katanning Airport",
    "latitude": -33.7167,
    "longitude": 117.633
  },
  {
    "country_code": "AU",
    "region_name": "Queensland",
    "iata": "BLS",
    "icao": "YBLL",
    "airport": "Bollon Airport",
    "latitude": -28.0583,
    "longitude": 147.483
  },
  {
    "country_code": "AU",
    "region_name": "Queensland",
    "iata": "BLT",
    "icao": "YBTR",
    "airport": "Blackwater Airport",
    "latitude": -23.6031,
    "longitude": 148.807
  },
  {
    "country_code": "AU",
    "region_name": "Western Australia",
    "iata": "CJF",
    "icao": "YCWA",
    "airport": "Coondewanna Airport",
    "latitude": -22.9667,
    "longitude": 118.813
  },
  {
    "country_code": "AU",
    "region_name": "Tasmania",
    "iata": "KNS",
    "icao": "YKII",
    "airport": "King Island Airport",
    "latitude": -39.8775,
    "longitude": 143.878
  },
  {
    "country_code": "AU",
    "region_name": "Western Australia",
    "iata": "KNX",
    "icao": "YPKU",
    "airport": "East Kimberley Regional Airport",
    "latitude": -15.7781,
    "longitude": 128.708
  },
  {
    "country_code": "AU",
    "region_name": "Queensland",
    "iata": "DMD",
    "icao": "YDMG",
    "airport": "Doomadgee Airport",
    "latitude": -17.9403,
    "longitude": 138.822
  },
  {
    "country_code": "AU",
    "region_name": "Queensland",
    "iata": "ORS",
    "icao": "",
    "airport": "Orpheus Island Resort Waterport",
    "latitude": -18.634,
    "longitude": 146.5
  },
  {
    "country_code": "AU",
    "region_name": "South Australia",
    "iata": "ORR",
    "icao": "YYOR",
    "airport": "Yorketown Airport",
    "latitude": -35,
    "longitude": 137.617
  },
  {
    "country_code": "AU",
    "region_name": "Western Australia",
    "iata": "LVO",
    "icao": "YLTN",
    "airport": "Laverton Airport",
    "latitude": -28.6136,
    "longitude": 122.424
  },
  {
    "country_code": "AU",
    "region_name": "Western Australia",
    "iata": "YLG",
    "icao": "YYAL",
    "airport": "Yalgoo Airport",
    "latitude": -28.3553,
    "longitude": 116.684
  },
  {
    "country_code": "AU",
    "region_name": "Queensland",
    "iata": "KOH",
    "icao": "YKLA",
    "airport": "Koolatah Airport",
    "latitude": -15.8886,
    "longitude": 142.439
  },
  {
    "country_code": "AU",
    "region_name": "Queensland",
    "iata": "OPI",
    "icao": "YOEN",
    "airport": "Oenpelli Airport",
    "latitude": -12.325,
    "longitude": 133.006
  },
  {
    "country_code": "AU",
    "region_name": "New South Wales",
    "iata": "MRZ",
    "icao": "YMOR",
    "airport": "Moree Airport",
    "latitude": -29.4989,
    "longitude": 149.845
  },
  {
    "country_code": "AU",
    "region_name": "Western Australia",
    "iata": "BME",
    "icao": "YBRM",
    "airport": "Broome International Airport",
    "latitude": -17.9447,
    "longitude": 122.232
  },
  {
    "country_code": "AU",
    "region_name": "Queensland",
    "iata": "OOR",
    "icao": "YMOO",
    "airport": "Mooraberree Airport",
    "latitude": -25.25,
    "longitude": 140.983
  },
  {
    "country_code": "AU",
    "region_name": "New South Wales",
    "iata": "OOM",
    "icao": "YCOM",
    "airport": "Cooma-Snowy Mountains Airport",
    "latitude": -36.3006,
    "longitude": 148.974
  },
  {
    "country_code": "AU",
    "region_name": "Northern Territory",
    "iata": "MRT",
    "icao": "",
    "airport": "Moroak Airport",
    "latitude": -14.8181,
    "longitude": 133.701
  },
  {
    "country_code": "AU",
    "region_name": "Queensland",
    "iata": "KPP",
    "icao": "YKPR",
    "airport": "Kalpowar Airport",
    "latitude": -14.89,
    "longitude": 144.22
  },
  {
    "country_code": "AU",
    "region_name": "Queensland",
    "iata": "OOL",
    "icao": "YBCG",
    "airport": "Gold Coast Airport (Coolangatta Airport)",
    "latitude": -28.1644,
    "longitude": 153.505
  },
  {
    "country_code": "AU",
    "region_name": "Queensland",
    "iata": "LWH",
    "icao": "YLAH",
    "airport": "Lawn Hill Airport",
    "latitude": -18.5683,
    "longitude": 138.635
  },
  {
    "country_code": "AU",
    "region_name": "New South Wales",
    "iata": "KPS",
    "icao": "YKMP",
    "airport": "Kempsey Airport",
    "latitude": -31.0744,
    "longitude": 152.77
  },
  {
    "country_code": "AU",
    "region_name": "Queensland",
    "iata": "DNB",
    "icao": "YDBR",
    "airport": "Dunbar Airport",
    "latitude": -16.05,
    "longitude": 142.4
  },
  {
    "country_code": "AU",
    "region_name": "Northern Territory",
    "iata": "CKI",
    "icao": "YCKI",
    "airport": "Croker Island Airport",
    "latitude": -11.165,
    "longitude": 132.483
  },
  {
    "country_code": "AU",
    "region_name": "Western Australia",
    "iata": "ONS",
    "icao": "YOLW",
    "airport": "Onslow Airport",
    "latitude": -21.6683,
    "longitude": 115.113
  },
  {
    "country_code": "AU",
    "region_name": "Western Australia",
    "iata": "DNG",
    "icao": "",
    "airport": "Doongan Airport",
    "latitude": -15.3864,
    "longitude": 126.302
  },
  {
    "country_code": "AU",
    "region_name": "Queensland",
    "iata": "BMP",
    "icao": "YBPI",
    "airport": "Brampton Island Airport",
    "latitude": -20.8033,
    "longitude": 149.27
  },
  {
    "country_code": "AU",
    "region_name": "South Australia",
    "iata": "MRP",
    "icao": "YALA",
    "airport": "Marla Airport",
    "latitude": -27.3333,
    "longitude": 133.627
  },
  {
    "country_code": "AU",
    "region_name": "Queensland",
    "iata": "MRL",
    "icao": "",
    "airport": "Miners Lake Airport",
    "latitude": 46.3834,
    "longitude": -82.6331
  },
  {
    "country_code": "AU",
    "region_name": "Queensland",
    "iata": "ONR",
    "icao": "YMNK",
    "airport": "Monkira Airport",
    "latitude": -24.8167,
    "longitude": 140.533
  },
  {
    "country_code": "AU",
    "region_name": "Queensland",
    "iata": "ONG",
    "icao": "YMTI",
    "airport": "Mornington Island Airport",
    "latitude": -16.6625,
    "longitude": 139.178
  },
  {
    "country_code": "AU",
    "region_name": "Queensland",
    "iata": "MRG",
    "icao": "YMBA",
    "airport": "Mareeba Airfield",
    "latitude": -17.0692,
    "longitude": 145.419
  },
  {
    "country_code": "AU",
    "region_name": "Western Australia",
    "iata": "WYN",
    "icao": "YWYM",
    "airport": "Wyndham Airport",
    "latitude": -15.5114,
    "longitude": 128.153
  },
  {
    "country_code": "AU",
    "region_name": "Western Australia",
    "iata": "MQZ",
    "icao": "YMGT",
    "airport": "Margaret River Airport",
    "latitude": -33.9306,
    "longitude": 115.1
  },
  {
    "country_code": "AU",
    "region_name": "South Australia",
    "iata": "WYA",
    "icao": "YWHA",
    "airport": "Whyalla Airport",
    "latitude": -33.0589,
    "longitude": 137.514
  },
  {
    "country_code": "AU",
    "region_name": "Western Australia",
    "iata": "DNM",
    "icao": "",
    "airport": "Denham Airport",
    "latitude": -25.8882,
    "longitude": 113.577
  },
  {
    "country_code": "AU",
    "region_name": "Western Australia",
    "iata": "KQR",
    "icao": "YKAR",
    "airport": "Karara Airport",
    "latitude": -29.2167,
    "longitude": 116.687
  },
  {
    "country_code": "AU",
    "region_name": "Victoria",
    "iata": "KRA",
    "icao": "YKER",
    "airport": "Kerang Airport",
    "latitude": -35.7514,
    "longitude": 143.939
  },
  {
    "country_code": "AU",
    "region_name": "New South Wales",
    "iata": "WWY",
    "icao": "YWWL",
    "airport": "West Wyalong Airport",
    "latitude": -33.9372,
    "longitude": 147.191
  },
  {
    "country_code": "AU",
    "region_name": "Western Australia",
    "iata": "CKW",
    "icao": "YCHK",
    "airport": "Graeme Rowley Aerodrome",
    "latitude": -22.3543,
    "longitude": 119.643
  },
  {
    "country_code": "AU",
    "region_name": "New South Wales",
    "iata": "DNQ",
    "icao": "YDLQ",
    "airport": "Deniliquin Airport",
    "latitude": -35.5594,
    "longitude": 144.946
  },
  {
    "country_code": "AU",
    "region_name": "Queensland",
    "iata": "KRB",
    "icao": "YKMB",
    "airport": "Karumba Airport",
    "latitude": -17.4567,
    "longitude": 140.83
  },
  {
    "country_code": "AU",
    "region_name": "Western Australia",
    "iata": "WWI",
    "icao": "YWWI",
    "airport": "Woodie Woodie Airport",
    "latitude": -21.6628,
    "longitude": 121.234
  },
  {
    "country_code": "AU",
    "region_name": "Victoria",
    "iata": "MQL",
    "icao": "YMIA",
    "airport": "Mildura Airport",
    "latitude": -34.2292,
    "longitude": 142.086
  },
  {
    "country_code": "AU",
    "region_name": "Northern Territory",
    "iata": "KRD",
    "icao": "",
    "airport": "Kurundi Airport",
    "latitude": -20.51,
    "longitude": 134.671
  },
  {
    "country_code": "AU",
    "region_name": "Queensland",
    "iata": "BNE",
    "icao": "YBBN",
    "airport": "Brisbane Airport",
    "latitude": -27.3842,
    "longitude": 153.117
  },
  {
    "country_code": "AU",
    "region_name": "South Australia",
    "iata": "OLP",
    "icao": "YOLD",
    "airport": "Olympic Dam Airport",
    "latitude": -30.485,
    "longitude": 136.877
  },
  {
    "country_code": "AU",
    "region_name": "Northern Territory",
    "iata": "MFP",
    "icao": "YMCR",
    "airport": "Manners Creek Airport",
    "latitude": -22.1,
    "longitude": 137.983
  },
  {
    "country_code": "AU",
    "region_name": "Northern Territory",
    "iata": "MQE",
    "icao": "YMQA",
    "airport": "Marqua Airport",
    "latitude": -22.8058,
    "longitude": 137.251
  },
  {
    "country_code": "AU",
    "region_name": "Queensland",
    "iata": "OKY",
    "icao": "YBOK",
    "airport": "Oakey Army Aviation Centre",
    "latitude": -27.4114,
    "longitude": 151.735
  },
  {
    "country_code": "AU",
    "region_name": "New South Wales",
    "iata": "BNK",
    "icao": "YBNA",
    "airport": "Ballina Byron Gateway Airport",
    "latitude": -28.8339,
    "longitude": 153.562
  },
  {
    "country_code": "AU",
    "region_name": "New South Wales",
    "iata": "CLH",
    "icao": "YCAH",
    "airport": "Coolah Airport",
    "latitude": -31.7733,
    "longitude": 149.61
  },
  {
    "country_code": "AU",
    "region_name": "Queensland",
    "iata": "OKR",
    "icao": "YYKI",
    "airport": "Yorke Island Airport",
    "latitude": -9.7528,
    "longitude": 143.406
  },
  {
    "country_code": "AU",
    "region_name": "Queensland",
    "iata": "KSV",
    "icao": "YSPV",
    "airport": "Springvale Airport",
    "latitude": -23.55,
    "longitude": 140.7
  },
  {
    "country_code": "AU",
    "region_name": "Queensland",
    "iata": "OKB",
    "icao": "YORC",
    "airport": "Orchid Beach Airport",
    "latitude": -24.9594,
    "longitude": 153.315
  },
  {
    "country_code": "AU",
    "region_name": "Western Australia",
    "iata": "WUN",
    "icao": "YWLU",
    "airport": "Wiluna Airport",
    "latitude": -26.6292,
    "longitude": 120.221
  },
  {
    "country_code": "AU",
    "region_name": "Western Australia",
    "iata": "WUI",
    "icao": "YMMI",
    "airport": "Murrin Murrin Airport",
    "latitude": -28.7053,
    "longitude": 121.891
  },
  {
    "country_code": "AU",
    "region_name": "Western Australia",
    "iata": "KTA",
    "icao": "YPKA",
    "airport": "Karratha Airport",
    "latitude": -20.7122,
    "longitude": 116.773
  },
  {
    "country_code": "AU",
    "region_name": "Western Australia",
    "iata": "MQA",
    "icao": "YMDI",
    "airport": "Mandora Station Airport",
    "latitude": -19.7383,
    "longitude": 120.838
  },
  {
    "country_code": "AU",
    "region_name": "Northern Territory",
    "iata": "MGT",
    "icao": "YMGB",
    "airport": "Milingimbi Airport",
    "latitude": -12.0944,
    "longitude": 134.894
  },
  {
    "country_code": "AU",
    "region_name": "Northern Territory",
    "iata": "KTR",
    "icao": "YPTN",
    "airport": "RAAF Base Tindal",
    "latitude": -14.5211,
    "longitude": 132.378
  },
  {
    "country_code": "AU",
    "region_name": "Western Australia",
    "iata": "ODR",
    "icao": "YORV",
    "airport": "Ord River Airport",
    "latitude": -17.3408,
    "longitude": 128.912
  },
  {
    "country_code": "AU",
    "region_name": "Western Australia",
    "iata": "ALH",
    "icao": "YABA",
    "airport": "Albany Airport",
    "latitude": -34.9433,
    "longitude": 117.809
  },
  {
    "country_code": "AU",
    "region_name": "South Australia",
    "iata": "WUD",
    "icao": "YWUD",
    "airport": "Wudinna Airport",
    "latitude": -33.0433,
    "longitude": 135.447
  },
  {
    "country_code": "AU",
    "region_name": "Queensland",
    "iata": "LYT",
    "icao": "",
    "airport": "Lady Elliot Island Airport",
    "latitude": -24.1129,
    "longitude": 152.716
  },
  {
    "country_code": "AU",
    "region_name": "South Australia",
    "iata": "ODL",
    "icao": "YCOD",
    "airport": "Cordillo Downs Airport",
    "latitude": -26.7453,
    "longitude": 140.638
  },
  {
    "country_code": "AU",
    "region_name": "Queensland",
    "iata": "KUG",
    "icao": "YKUB",
    "airport": "Kubin Airport",
    "latitude": -10.225,
    "longitude": 142.218
  },
  {
    "country_code": "AU",
    "region_name": "South Australia",
    "iata": "ODD",
    "icao": "YOOD",
    "airport": "Oodnadatta Airport",
    "latitude": -27.5617,
    "longitude": 135.447
  },
  {
    "country_code": "AU",
    "region_name": "Western Australia",
    "iata": "DOX",
    "icao": "YDRA",
    "airport": "Dongara Airport",
    "latitude": -29.2981,
    "longitude": 114.927
  },
  {
    "country_code": "AU",
    "region_name": "Western Australia",
    "iata": "OCM",
    "icao": "YBGD",
    "airport": "Boolgeeda Airport",
    "latitude": -22.54,
    "longitude": 117.275
  },
  {
    "country_code": "AU",
    "region_name": "Queensland",
    "iata": "OBA",
    "icao": "",
    "airport": "Oban Airport",
    "latitude": 56.4657,
    "longitude": -5.3977
  },
  {
    "country_code": "AU",
    "region_name": "Queensland",
    "iata": "KWM",
    "icao": "YKOW",
    "airport": "Kowanyama Airport",
    "latitude": -15.4856,
    "longitude": 141.751
  },
  {
    "country_code": "AU",
    "region_name": "Queensland",
    "iata": "CMA",
    "icao": "YCMU",
    "airport": "Cunnamulla Airport",
    "latitude": -28.03,
    "longitude": 145.622
  },
  {
    "country_code": "AU",
    "region_name": "New South Wales",
    "iata": "OAG",
    "icao": "YORG",
    "airport": "Orange Airport",
    "latitude": -33.3817,
    "longitude": 149.133
  },
  {
    "country_code": "AU",
    "region_name": "Queensland",
    "iata": "WTB",
    "icao": "YBWW",
    "airport": "Toowoomba Wellcamp Airport",
    "latitude": -27.5583,
    "longitude": 151.793
  },
  {
    "country_code": "AU",
    "region_name": "Queensland",
    "iata": "MOV",
    "icao": "YMRB",
    "airport": "Moranbah Airport",
    "latitude": -22.0578,
    "longitude": 148.077
  },
  {
    "country_code": "AU",
    "region_name": "New South Wales",
    "iata": "CMD",
    "icao": "YCTM",
    "airport": "Cootamundra Airport",
    "latitude": -34.6239,
    "longitude": 148.028
  },
  {
    "country_code": "AU",
    "region_name": "Tasmania",
    "iata": "DPO",
    "icao": "YDPO",
    "airport": "Devonport Airport",
    "latitude": -41.1697,
    "longitude": 146.43
  },
  {
    "country_code": "AU",
    "region_name": "Queensland",
    "iata": "LZR",
    "icao": "YLZI",
    "airport": "Lizard Island Airport",
    "latitude": -14.6733,
    "longitude": 145.455
  },
  {
    "country_code": "AU",
    "region_name": "South Australia",
    "iata": "MOO",
    "icao": "YOOM",
    "airport": "Moomba Airport",
    "latitude": -28.0994,
    "longitude": 140.197
  },
  {
    "country_code": "AU",
    "region_name": "New South Wales",
    "iata": "NYN",
    "icao": "YNYN",
    "airport": "Nyngan Airport",
    "latitude": -31.5511,
    "longitude": 147.203
  },
  {
    "country_code": "AU",
    "region_name": "Queensland",
    "iata": "WSY",
    "icao": "YSHR",
    "airport": "Whitsunday Airport",
    "latitude": -20.2761,
    "longitude": 148.755
  },
  {
    "country_code": "AU",
    "region_name": "Western Australia",
    "iata": "KYF",
    "icao": "YYLR",
    "airport": "Yeelirrie Airport",
    "latitude": -27.2771,
    "longitude": 120.096
  },
  {
    "country_code": "AU",
    "region_name": "South Australia",
    "iata": "KYI",
    "icao": "YYTA",
    "airport": "Yalata Airport",
    "latitude": -31.4706,
    "longitude": 131.825
  },
  {
    "country_code": "AU",
    "region_name": "Western Australia",
    "iata": "DRB",
    "icao": "YDBY",
    "airport": "Derby Airport",
    "latitude": -17.37,
    "longitude": 123.661
  },
  {
    "country_code": "AU",
    "region_name": "Queensland",
    "iata": "DRD",
    "icao": "YDOR",
    "airport": "Dorunda Airport",
    "latitude": -16.5537,
    "longitude": 141.824
  },
  {
    "country_code": "AU",
    "region_name": "Northern Territory",
    "iata": "BOX",
    "icao": "YBRL",
    "airport": "Borroloola Airport",
    "latitude": -16.0753,
    "longitude": 136.302
  },
  {
    "country_code": "AU",
    "region_name": "Queensland",
    "iata": "CML",
    "icao": "YCMW",
    "airport": "Camooweal Airport",
    "latitude": -19.9117,
    "longitude": 138.125
  },
  {
    "country_code": "AU",
    "region_name": "Western Australia",
    "iata": "WRW",
    "icao": "YWWG",
    "airport": "Warrawagine Airport",
    "latitude": -20.8442,
    "longitude": 120.702
  },
  {
    "country_code": "AU",
    "region_name": "Western Australia",
    "iata": "WRN",
    "icao": "YWDG",
    "airport": "Windarling Airport",
    "latitude": -30.0317,
    "longitude": 119.39
  },
  {
    "country_code": "AU",
    "region_name": "South Australia",
    "iata": "NUR",
    "icao": "YNUB",
    "airport": "Nullabor Motel Airport",
    "latitude": -31.4417,
    "longitude": 130.902
  },
  {
    "country_code": "AU",
    "region_name": "Northern Territory",
    "iata": "NUB",
    "icao": "YNUM",
    "airport": "Numbulwar Airport",
    "latitude": -14.2717,
    "longitude": 135.717
  },
  {
    "country_code": "AU",
    "region_name": "Queensland",
    "iata": "CMQ",
    "icao": "YCMT",
    "airport": "Clermont Airport",
    "latitude": -22.7731,
    "longitude": 147.621
  },
  {
    "country_code": "AU",
    "region_name": "South Australia",
    "iata": "AMT",
    "icao": "YAMT",
    "airport": "Amata Airport",
    "latitude": -26.1083,
    "longitude": 131.207
  },
  {
    "country_code": "AU",
    "region_name": "Queensland",
    "iata": "NTN",
    "icao": "YNTN",
    "airport": "Normanton Airport",
    "latitude": -17.6841,
    "longitude": 141.07
  },
  {
    "country_code": "AU",
    "region_name": "New South Wales",
    "iata": "NTL",
    "icao": "YWLM",
    "airport": "Newcastle Airport / RAAF Base Williamtown",
    "latitude": -32.795,
    "longitude": 151.834
  },
  {
    "country_code": "AU",
    "region_name": "Northern Territory",
    "iata": "AMX",
    "icao": "",
    "airport": "Ammaroo Airport",
    "latitude": -21.7383,
    "longitude": 135.242
  },
  {
    "country_code": "AU",
    "region_name": "Queensland",
    "iata": "DRN",
    "icao": "YDBI",
    "airport": "Dirranbandi Airport",
    "latitude": -28.5917,
    "longitude": 148.217
  },
  {
    "country_code": "AU",
    "region_name": "Northern Territory",
    "iata": "MNW",
    "icao": "YMDS",
    "airport": "MacDonald Downs Airport",
    "latitude": -22.444,
    "longitude": 135.199
  },
  {
    "country_code": "AU",
    "region_name": "Northern Territory",
    "iata": "MNV",
    "icao": "",
    "airport": "Mount Valley Airport",
    "latitude": -14.1167,
    "longitude": 133.833
  },
  {
    "country_code": "AU",
    "region_name": "Queensland",
    "iata": "MNQ",
    "icao": "YMTO",
    "airport": "Monto Airport",
    "latitude": -24.8858,
    "longitude": 151.1
  },
  {
    "country_code": "AU",
    "region_name": "Queensland",
    "iata": "NSV",
    "icao": "YNSH",
    "airport": "Noosa Airport",
    "latitude": -26.4233,
    "longitude": 153.063
  },
  {
    "country_code": "AU",
    "region_name": "Queensland",
    "iata": "DRR",
    "icao": "YDRI",
    "airport": "Durrie Airport",
    "latitude": -25.685,
    "longitude": 140.228
  },
  {
    "country_code": "AU",
    "region_name": "New South Wales",
    "iata": "NSO",
    "icao": "YSCO",
    "airport": "Scone Airport",
    "latitude": -32.0372,
    "longitude": 150.832
  },
  {
    "country_code": "AU",
    "region_name": "Queensland",
    "iata": "WPK",
    "icao": "YWMP",
    "airport": "Wrotham Park Airport",
    "latitude": -16.6583,
    "longitude": 144.002
  },
  {
    "country_code": "AU",
    "region_name": "Western Australia",
    "iata": "NSM",
    "icao": "YNSM",
    "airport": "Norseman Airport",
    "latitude": -32.21,
    "longitude": 121.755
  },
  {
    "country_code": "AU",
    "region_name": "Northern Territory",
    "iata": "NRY",
    "icao": "",
    "airport": "Newry Airport",
    "latitude": -16.0442,
    "longitude": 129.264
  },
  {
    "country_code": "AU",
    "region_name": "Northern Territory",
    "iata": "DRW",
    "icao": "YPDN",
    "airport": "Darwin International Airport",
    "latitude": -12.4147,
    "longitude": 130.877
  },
  {
    "country_code": "AU",
    "region_name": "New South Wales",
    "iata": "CNB",
    "icao": "YCNM",
    "airport": "Coonamble Airport",
    "latitude": -30.9833,
    "longitude": 148.376
  },
  {
    "country_code": "AU",
    "region_name": "Northern Territory",
    "iata": "MNG",
    "icao": "YMGD",
    "airport": "Maningrida Airport",
    "latitude": -12.0561,
    "longitude": 134.234
  },
  {
    "country_code": "AU",
    "region_name": "Western Australia",
    "iata": "BQB",
    "icao": "YBLN",
    "airport": "Busselton Regional Airport",
    "latitude": -33.6884,
    "longitude": 115.402
  },
  {
    "country_code": "AU",
    "region_name": "Queensland",
    "iata": "CNC",
    "icao": "YCCT",
    "airport": "Coconut Island Airport",
    "latitude": -10.05,
    "longitude": 143.07
  },
  {
    "country_code": "AU",
    "region_name": "Western Australia",
    "iata": "DRY",
    "icao": "YDRD",
    "airport": "Drysdale River Airport",
    "latitude": -15.7136,
    "longitude": 126.381
  },
  {
    "country_code": "AU",
    "region_name": "New South Wales",
    "iata": "LBH",
    "icao": "",
    "airport": "Palm Beach Water Airport",
    "latitude": -33.5871,
    "longitude": 151.323
  },
  {
    "country_code": "AU",
    "region_name": "South Australia",
    "iata": "MNE",
    "icao": "YMUG",
    "airport": "Mungeranie Airport",
    "latitude": -28.0092,
    "longitude": 138.657
  },
  {
    "country_code": "AU",
    "region_name": "Western Australia",
    "iata": "NRG",
    "icao": "YNRG",
    "airport": "Narrogin Airport",
    "latitude": -32.93,
    "longitude": 117.08
  },
  {
    "country_code": "AU",
    "region_name": "New South Wales",
    "iata": "NRA",
    "icao": "YNAR",
    "airport": "Narrandera Airport",
    "latitude": -34.7022,
    "longitude": 146.512
  },
  {
    "country_code": "AU",
    "region_name": "Queensland",
    "iata": "BQL",
    "icao": "YBOU",
    "airport": "Boulia Airport",
    "latitude": -22.9133,
    "longitude": 139.9
  },
  {
    "country_code": "AU",
    "region_name": "Northern Territory",
    "iata": "ANZ",
    "icao": "",
    "airport": "Angus Downs Airport",
    "latitude": -25.0325,
    "longitude": 132.275
  },
  {
    "country_code": "AU",
    "region_name": "South Australia",
    "iata": "LCN",
    "icao": "YBLC",
    "airport": "Balcanoona Airport",
    "latitude": -30.535,
    "longitude": 139.337
  },
  {
    "country_code": "AU",
    "region_name": "Queensland",
    "iata": "WON",
    "icao": "YWDL",
    "airport": "Wondoola Airport",
    "latitude": -18.575,
    "longitude": 140.892
  },
  {
    "country_code": "AU",
    "region_name": "Queensland",
    "iata": "CNJ",
    "icao": "YCCY",
    "airport": "Cloncurry Airport",
    "latitude": -20.6686,
    "longitude": 140.504
  },
  {
    "country_code": "AU",
    "region_name": "New South Wales",
    "iata": "WOL",
    "icao": "YWOL",
    "airport": "Illawarra Regional Airport",
    "latitude": -34.5611,
    "longitude": 150.789
  },
  {
    "country_code": "AU",
    "region_name": "Western Australia",
    "iata": "MBB",
    "icao": "YMBL",
    "airport": "Marble Bar Airport",
    "latitude": -21.1633,
    "longitude": 119.833
  },
  {
    "country_code": "AU",
    "region_name": "Northern Territory",
    "iata": "NPP",
    "icao": "",
    "airport": "Napperby Airport",
    "latitude": -22.5312,
    "longitude": 133.763
  },
  {
    "country_code": "AU",
    "region_name": "Queensland",
    "iata": "WNR",
    "icao": "YWDH",
    "airport": "Windorah Airport",
    "latitude": -25.4131,
    "longitude": 142.667
  },
  {
    "country_code": "AU",
    "region_name": "Queensland",
    "iata": "LDC",
    "icao": "YLIN",
    "airport": "Lindeman Island Airport",
    "latitude": -20.4536,
    "longitude": 149.04
  },
  {
    "country_code": "AU",
    "region_name": "Western Australia",
    "iata": "BQW",
    "icao": "YBGO",
    "airport": "Balgo Hill Airport",
    "latitude": -20.1483,
    "longitude": 127.973
  },
  {
    "country_code": "AU",
    "region_name": "New South Wales",
    "iata": "LDH",
    "icao": "YLHI",
    "airport": "Lord Howe Island Airport",
    "latitude": -31.5383,
    "longitude": 159.077
  },
  {
    "country_code": "AU",
    "region_name": "New South Wales",
    "iata": "NOA",
    "icao": "YSNW",
    "airport": "NAS Nowra",
    "latitude": -34.9489,
    "longitude": 150.537
  },
  {
    "country_code": "AU",
    "region_name": "Victoria",
    "iata": "MBF",
    "icao": "YPOK",
    "airport": "Porepunkah Airfield",
    "latitude": -36.7187,
    "longitude": 146.89
  },
  {
    "country_code": "AU",
    "region_name": "Western Australia",
    "iata": "WND",
    "icao": "",
    "airport": "Windarra Airport",
    "latitude": -28.475,
    "longitude": 122.242
  },
  {
    "country_code": "AU",
    "region_name": "Queensland",
    "iata": "CNS",
    "icao": "YBCS",
    "airport": "Cairns Airport",
    "latitude": -16.8858,
    "longitude": 145.755
  },
  {
    "country_code": "AU",
    "region_name": "Queensland",
    "iata": "MBH",
    "icao": "YMYB",
    "airport": "Maryborough Airport",
    "latitude": -25.5133,
    "longitude": 152.715
  },
  {
    "country_code": "AU",
    "region_name": "Queensland",
    "iata": "MMM",
    "icao": "YMMU",
    "airport": "Middlemount Airport",
    "latitude": -22.8025,
    "longitude": 148.705
  },
  {
    "country_code": "AU",
    "region_name": "Western Australia",
    "iata": "LDW",
    "icao": "",
    "airport": "Lansdowne Airport",
    "latitude": -17.6128,
    "longitude": 126.743
  },
  {
    "country_code": "AU",
    "region_name": "Victoria",
    "iata": "BRJ",
    "icao": "",
    "airport": "Bright Airport",
    "latitude": -36.733,
    "longitude": 146.967
  },
  {
    "country_code": "AU",
    "region_name": "New South Wales",
    "iata": "BRK",
    "icao": "YBKE",
    "airport": "Bourke Airport",
    "latitude": -30.0392,
    "longitude": 145.952
  },
  {
    "country_code": "AU",
    "region_name": "Western Australia",
    "iata": "WME",
    "icao": "YMNE",
    "airport": "Mount Keith Airport",
    "latitude": -27.2864,
    "longitude": 120.555
  },
  {
    "country_code": "AU",
    "region_name": "Western Australia",
    "iata": "MBN",
    "icao": "",
    "airport": "Mount Barnett Airport",
    "latitude": -16.6573,
    "longitude": 125.961
  },
  {
    "country_code": "AU",
    "region_name": "Western Australia",
    "iata": "LEA",
    "icao": "YPLM",
    "airport": "RAAF Learmonth (Learmonth Airport)",
    "latitude": -22.2356,
    "longitude": 114.089
  },
  {
    "country_code": "AU",
    "region_name": "Western Australia",
    "iata": "MMG",
    "icao": "YMOG",
    "airport": "Mount Magnet Airport",
    "latitude": -28.1161,
    "longitude": 117.842
  },
  {
    "country_code": "AU",
    "region_name": "Northern Territory",
    "iata": "LEL",
    "icao": "YLEV",
    "airport": "Lake Evella Airport",
    "latitude": -12.4989,
    "longitude": 135.806
  },
  {
    "country_code": "AU",
    "region_name": "Victoria",
    "iata": "WMB",
    "icao": "YWBL",
    "airport": "Warrnambool Airport",
    "latitude": -38.2953,
    "longitude": 142.447
  },