,type,name,latitude_deg,longitude_deg,elevation_ft,continent,iso_country,gps_code,iata_code
1,small_airport,Aero B Ranch Airport,38.704022,-101.473911,3435.0,,US,00AA,
2,small_airport,Lowell Field,59.94919968,-151.695999146,450.0,,US,00AK,
3,small_airport,Epps Airpark,34.86479949951172,-86.77030181884766,820.0,,US,00AL,
5,small_airport,Fulton Airport,34.9428028,-97.8180194,1100.0,,US,00AS,
6,small_airport,Cordes Airport,34.305599212646484,-112.16500091552734,3810.0,,US,00AZ,
7,small_airport,Goldstone /Gts/ Airport,35.350498199499995,-116.888000488,3038.0,,US,00CA,
8,small_airport,Williams Ag Airport,39.427188,-121.763427,87.0,,US,00CL,
11,small_airport,Grass Patch Airport,28.64550018310547,-82.21900177001953,53.0,,US,00FA,
13,small_airport,River Oak Airport,27.230899810791016,-80.96920013427734,35.0,,US,00FL,
14,small_airport,Lt World Airport,33.76750183105469,-84.06829833984375,700.0,,US,00GA,
17,small_airport,Delta Shores Airport,48.145301818847656,-116.21399688720705,2064.0,,US,00ID,
18,small_airport,Goltl Airport,39.724028,-101.395994,3359.0,,US,00IG,
20,small_airport,Hammer Airport,41.97840118408203,-89.5604019165039,840.0,,US,00IL,
22,small_airport,Hayenga's Cant Find Farms Airport,40.02560043334961,-89.1229019165039,820.0,,US,00IS,
23,small_airport,Hayden Farm Airport,38.72779846191406,-94.93049621582033,1100.0,,US,00KS,
24,small_airport,Robbins Roost Airport,37.409400939941406,-84.61969757080078,1265.0,,US,00KY,
27,small_airport,Lejeune Airport,30.13629913330078,-92.4293975830078,12.0,,US,00LS,
28,small_airport,Slater Field,38.75709915161133,-75.75379943847656,45.0,,US,00MD,
30,small_airport,Battle Lake Municipal Airport,46.29999923706055,-95.70030212402344,1365.0,,US,00MN,
31,small_airport,Cooper Flying Service Airport,37.202800750732,-94.412399291992,970.0,,US,00MO,
33,small_airport,Bucks Airport,39.47320175170898,-75.1852035522461,105.0,,US,00N,
34,small_airport,North Raleigh Airport,36.08520126342773,-78.37139892578125,348.0,,US,00NC,
37,small_airport,Weiss Airfield,42.90010070800781,-77.49970245361328,1000.0,,US,00NY,
40,small_airport,Gull Bay Landing Airport,36.198598,-96.217693,960.0,,US,00OK,
43,small_airport,Ferrell Field,41.2995,-80.211111,1301.0,,US,00PN,
45,small_airport,McKenzie Bridge State Airport,44.181466,-122.086,1620.0,,US,,
46,small_airport,Flying O Airport,34.0093994140625,-80.26719665527344,150.0,,US,00SC,
47,small_airport,Homan Field,44.809158,-96.498897,1590.0,,US,00SD,
50,small_airport,Ragsdale Road Airport,35.515899658203125,-85.95359802246094,1100.0,,US,00TN,
51,small_airport,Alpine Range Airport,32.607601165771484,-97.24199676513672,670.0,,US,00TS,
54,small_airport,Vaughan Airport,36.57600021,-78.9991684,551.0,,US,00VA,
55,small_airport,Groundhog Mountain Airport,36.66329956054688,-80.49949645996094,2680.0,,US,00VI,
56,small_airport,Lower Granite State Airport,46.672884,-117.441933,719.0,,US,,
57,small_airport,Howell Airport,47.17839813232422,-122.77200317382812,150.0,,US,00WA,
58,small_airport,Northern Lite Airport,44.304298400878906,-89.05010223388672,860.0,,US,00WI,
59,small_airport,Hawks Run Airport,46.25,-117.2490005493164,2900.0,,US,00WN,
60,small_airport,Lazy J. Aerodrome,38.82889938354492,-79.86609649658203,2060.0,,US,00WV,
62,small_airport,L P Askew Farms Airport,33.03340148925781,-101.93399810791016,3110.0,,US,00XS,
63,small_airport,Purkeypile Airport,62.94359970092773,-152.27000427246094,1950.0,,US,01A,
65,small_airport,Ware Island Airport,32.94599914550781,-86.51390075683594,344.0,,US,01AL,
70,small_airport,Swansboro Country Airport,38.79990005493164,-120.73400115966795,2594.0,,US,01CL,
74,small_airport,Rybolt Ranch Airport,28.589399337768555,-81.14420318603516,55.0,,US,01FA,
76,small_airport,Cedar Knoll Flying Ranch Airport,28.78190040588379,-81.1592025756836,19.0,,US,01FL,
78,small_airport,The Farm Airport,32.674400329589844,-82.77110290527344,375.0,,US,01GE,
79,small_airport,Stender Airport,41.66109848022461,-90.74130249023438,725.0,,US,01IA,
80,small_airport,Lava Hot Springs Airport,42.6082,-112.031998,5268.0,,US,01ID,
81,small_airport,Myers Field,39.8849983215332,-86.50669860839844,950.0,,US,01II,
84,small_airport,William E. Koenig Airport,39.01620101928711,-90.31819915771484,670.0,,US,01IS,
85,small_airport,Hilliard Airpark,30.68630027770996,-81.90570068359375,59.0,,US,01J,
86,small_airport,Caldwell Municipal Airport,37.03609848022461,-97.5864028930664,1157.0,,US,01K,
87,small_airport,Flying N Ranch Airport,38.54059982299805,-97.00330352783205,1485.0,,US,01KS,
89,small_airport,Barham Airport,32.638999938964844,-91.77369689941406,90.0,,US,01LA,
90,small_airport,Schumaier Restricted Landing Area,38.12580108642578,-89.46389770507812,555.0,,US,01LL,
91,small_airport,Country Breeze Airport,30.70599937438965,-91.07740020751952,125.0,,US,01LS,
98,small_airport,Crystal Lakes Resort Airport,48.789100646972656,-114.87999725341795,3141.0,,US,01MT,
99,small_airport,Topsail Airpark,34.47529983520508,-77.5813980102539,65.0,,US,01NC,
100,small_airport,Detour Airport,40.84360122680664,-100.65299987792967,3000.0,,US,01NE,
101,small_airport,Moore Airfield,43.6445,-72.086998,835.0,,US,01NH,
103,small_airport,Champion Ranch Airport,33.008611,-104.540278,3630.0,,US,01NM,
104,small_airport,Lantana Ranch Airport,38.76390075683594,-119.0270004272461,4600.0,,US,01NV,
110,small_airport,Bierly(Personal Use) Airport,40.93059921264648,-77.73889923095703,960.0,,US,01PN,
111,small_airport,Nort's Resort Airport,41.59590148925781,-76.02960205078125,1040.0,,US,01PS,
112,small_airport,York Airport,35.032100677490234,-81.25279998779297,779.0,,US,01SC,
114,small_airport,Smith Field,32.73759841918945,-96.4280014038086,505.0,,US,01TE,
115,small_airport,Colonial Air Park,34.99589920043945,-89.73059844970703,370.0,,US,01TN,
119,small_airport,Duckwater Airport,38.851600646972656,-115.63400268554688,5124.0,,US,01U,
120,small_airport,La Sal Junction Airport,38.30830001831055,-109.39600372314452,6000.0,,US,01UT,
121,small_airport,Pickles Airport,39.125,-77.9250030518,500.0,,US,01VA,
123,small_airport,Prehn Cranberry Company Airport,44.0099983215332,-90.38919830322266,930.0,,US,01WI,
126,small_airport,Keyhole Airport,44.347198486328125,-104.81099700927734,4250.0,,US,01WY,
129,small_airport,Barefoot Airport,61.506147,-149.912825,160.0,,US,02AA,
130,small_airport,Rustic Wilderness Airport,61.876907,-150.097626,190.0,,US,02AK,
131,small_airport,Bass Field,30.37150001525879,-87.76439666748047,61.0,,US,02AL,
135,small_airport,Shannon Field,34.129600524902344,-90.52400207519533,165.0,,US,02CD,
136,small_airport,Conover Air Lodge Airport,34.761101,-119.058998,5160.0,,US,02CL,
137,small_airport,Mc Cullough Airport,37.64329910279999,-106.04699707,7615.0,,US,02CO,
139,small_airport,Osborn Airfield,28.52669906616211,-81.87480163574219,121.0,,US,02FA,
140,small_airport,Triple R Ranch Airport,30.950976,-86.635555,209.0,,US,02FD,
142,small_airport,Doug Bolton Field,34.202598571777344,-83.42900085449219,884.0,,US,02GA,
143,small_airport,Etowah Fields Airport,34.17530059814453,-84.92440032958984,710.0,,US,02GE,
146,small_airport,Morgan Ranch Airport,44.55550003051758,-115.30500030517578,5634.0,,US,02ID,
147,small_airport,King Ultralightport,40.06230163574219,-86.21050262451172,925.0,,US,02II,
148,small_airport,Diamond P. Field,40.20890045166016,-85.54080200195312,904.0,,US,02IN,
150,small_airport,Jmj Landing Airport,39.222198486328125,-96.0552978515625,1170.0,,US,02KS,
156,small_airport,Garner Field,38.672544,-76.709739,141.0,,US,02MD,
157,small_airport,Nadeau's Airfield,43.537467,-70.930685,700.0,,US,02ME,
158,small_airport,Fairplains Airpark,43.15710067749024,-85.14849853515625,850.0,,US,02MI,
159,small_airport,Greenbush Municipal Airport,48.68330001831055,-96.19200134277344,1070.0,,US,02MN,
160,small_airport,Troy Airpark,39.04999923706055,-91.03350067138672,650.0,,US,02MO,
161,small_airport,Watts Field,34.100101470947266,-90.8468017578125,153.0,,US,02MS,
165,small_airport,Benes Service Airport,41.074501037597656,-96.90450286865234,1550.0,,US,02NE,
168,small_airport,Paiute Meadows Airport,41.30329895019531,-118.5979995727539,4443.0,,US,02NV,
170,small_airport,Zimmerman Airport,41.37639999389648,-83.08329772949219,614.0,,US,02OH,
171,small_airport,Murtha Airport,41.80199813842773,-80.56539916992188,950.0,,US,02OI,
174,small_airport,Rowena Dell Airport,45.68149948120117,-121.31600189208984,705.0,,US,02OR,
178,small_airport,Cuylers Airport,18.45330047607422,-66.36689758300781,15.0,,PR,02PR,
179,small_airport,Hughes Ultralightport,41.90060043334961,-77.23030090332031,1700.0,,US,02PS,
180,small_airport,Harpers Airport,32.75849914550781,-81.22480010986328,111.0,,US,02SC,
181,small_airport,Wise River Airport,45.76910018920898,-112.98200225830078,5830.0,,US,02T,
184,small_airport,Ellis Field,35.780601501464844,-86.58419799804688,840.0,,US,02TN,
187,small_airport,Lucin Airport,41.36629867553711,-113.84300231933594,4412.0,,US,02UT,
188,small_airport,The Greenhouse Airport,38.43569946289063,-77.8572006225586,320.0,,US,02VA,
190,small_airport,Cawleys South Prairie Airport,47.15230178833008,-122.09400177001952,690.0,,US,02WA,
191,small_airport,Beer Airport,45.03189849853516,-92.65579986572266,920.0,,US,02WI,
192,small_airport,Fowler Field,48.74580001831055,-119.31900024414062,2150.0,,US,02WN,
193,small_airport,JLS Farms Airport,33.591319,-95.882864,675.0,,US,02XA,
199,small_airport,Thompson International Aviation Airport,31.433399200439453,-110.08399963378906,4275.0,,US,03AZ,
201,small_airport,Kugel-Strong Airport,40.2125015259,-104.744003296,4950.0,,US,03CO,
202,small_airport,Lake Persimmon Airstrip,27.353099822998047,-81.40809631347656,70.0,,US,03FA,
205,small_airport,HIA Airport,32.5623056,-81.8576944,238.0,,US,03GA,
207,small_airport,East Field,41.58190155029297,-92.4613037109375,954.0,,US,03IA,
208,small_airport,Flying Y Ranch Airport,44.7943000793457,-116.53299713134766,3180.0,,US,03ID,
209,small_airport,Davis Field Ultralightport,37.9620018005,-87.7789001465,465.0,,US,03II,
210,small_airport,Wix Airport,41.40230178833008,-87.81670379638672,750.0,,US,03IL,
211,small_airport,Heinzman Airport,40.18000030517578,-86.01249694824219,850.0,,US,03IN,
214,small_airport,Flying H Farms Airport,37.79169845581055,-87.54139709472656,385.0,,US,03KY,
218,small_airport,Hadley Airport,42.39310073852539,-72.552001953125,150.0,,US,03MA,
220,small_airport,Maple Ridge Airport,44.08420181274414,-70.6272964477539,556.0,,US,03ME,
222,small_airport,Nauerth Land Ranch Airport,43.62519836425781,-95.22470092773438,1435.0,,US,03MN,
225,small_airport,Cascade Field,47.267327,-111.71748,3580.0,,US,3MT7,
226,small_airport,Mc Donnell Airport,38.4925003052,-94.41249847410002,874.0,,US,03MU,
227,small_airport,Utirik Airport,11.222,169.852005,4.0,OC,MH,K03N,UTK
228,small_airport,Pilots Ridge Airport,34.10430145263672,-77.9041976928711,35.0,,US,03NC,
229,small_airport,Olafson Brothers Airport,48.62639999389648,-97.8290023803711,1045.0,,US,03ND,
230,small_airport,Hyde Ranch Airport,41.5463981628418,-99.3311996459961,2430.0,,US,03NE,
233,small_airport,Llama Ranch Airport,40.58440017700195,-115.2979965209961,6120.0,,US,03NV,
234,small_airport,Talmage Field,40.95840072631836,-72.716796875,95.0,,US,03NY,
235,small_airport,Gibbs Field,41.418399810791016,-83.01740264892578,580.0,,US,03OH,
237,small_airport,Sahoma Lake Airport,36.04119873046875,-96.1613998413086,890.0,,US,03OK,
238,small_airport,Powwatka Ridge Airport,45.85540008544922,-117.48400115966795,3340.0,,US,03OR,
241,small_airport,Sun View Field Airport,39.065947,-94.921703,980.0,,US,03PR,
243,small_airport,Sandy River Airport,45.401798248291016,-122.22899627685548,704.0,,US,03S,
246,small_airport,Barronena Ranch Airport,27.491100311279297,-98.66950225830078,600.0,,US,03TE,
249,small_airport,Brazos Polo Airport,29.632117,-95.932481,117.0,,US,03TT,
251,small_airport,A Z Minerals Corporation Airport,37.12080001831055,-109.98600006103516,5315.0,,US,03UT,
253,small_airport,Spangle Field,47.408199310302734,-117.37200164794922,2440.0,,US,03WA,
254,small_airport,Zink Airport,44.028873,-88.883945,880.0,,US,03WI,
255,small_airport,Aerostone Ranch Airport,45.875,-120.66999816894533,2320.0,,US,03WN,
256,small_airport,Creekside Airport,31.318099975585938,-100.75399780273438,2100.0,,US,03XS,
257,small_airport,Flying W Ranch Airport,60.535833,-150.811387,250.0,,US,04AA,
261,small_airport,Gray Butte Field,34.5639,-117.675003,3020.0,,US,KGXA,
262,small_airport,Hunt's Sky Ranch Airport,33.08169937133789,-116.44100189208984,2310.0,,US,04CL,
265,small_airport,Richards Field,25.55870056152344,-80.51509857177734,9.0,,US,04FA,
267,small_airport,Cross Creek Farms Airport,29.23940086364746,-81.22200012207031,30.0,,US,04FL,
268,small_airport,Columbus Southwest Airport,39.91120147705078,-83.18879699707031,920.0,,US,04I,
269,small_airport,Middlekoop Airport,41.08829879760742,-92.05460357666016,801.0,,US,04IA,
270,small_airport,Lanham Field,43.87770080566406,-116.53700256347656,2343.0,,US,04ID,
271,small_airport,Turkey Run Airport,41.13059997558594,-84.99410247802734,765.0,,US,04II,
272,small_airport,Schertz Aerial Service - Hudson Airport,40.6375007629,-89.0070037842,755.0,,US,04IL,
274,small_airport,Van Gorder Airport,40.1786003112793,-88.56900024414062,728.0,,US,04IS,
276,small_airport,Natchez Trace Farm Airport,37.135101318359375,-85.78939819335938,710.0,,US,04KY,
278,small_airport,Brunner Airport,42.13610076904297,-88.28759765625,750.0,,US,04LL,
280,small_airport,Goddard Field,42.810908,-71.140959,200.0,,US,04MA,
282,small_airport,Beech Hill Airport,44.66669845581055,-69.8938980102539,625.0,,US,04ME,
283,small_airport,Rapids Airway Airport,42.53450012207031,-84.62830352783203,880.0,,US,04MI,
284,small_airport,Helblad Airport,47.985801696777344,-94.68689727783205,1195.0,,US,04MN,
285,small_airport,Airpark Private Airport,39.30120086669922,-91.45149993896484,767.0,,US,04MO,
286,small_airport,Nick's Flying Service Inc Airport,32.9396018982,-90.8373031616,100.0,,US,04MS,
287,small_airport,Pluhar Airport,47.13749777779999,-106.488095,2715.0,,US,04MT,
289,small_airport,Mc Connell Field Airport,41.1599998474,-101.299003601,3035.0,,US,04NE,
290,small_airport,Emmanuel Airport,39.5968017578,-75.2334976196,155.0,,US,04NJ,
291,small_airport,Kingston Ranch Airport,35.7555007935,-115.665000916,2620.0,,US,04NV,
292,small_airport,Klaverack Airport,42.262298584,-73.6961975098,250.0,,US,04NY,
296,small_airport,Collins Landing Strip,44.7499008179,-120.200996399,1500.0,,US,04OR,
303,small_airport,Hensley Airpark,36.1833000183,-82.67890167239999,1430.0,,US,04TN,
305,small_airport,4D Ranch Airport,29.713072,-99.545642,1550.0,,US,04TT,
306,small_airport,Pocock Airport,31.732779,-97.369326,565.0,,US,04TX,
307,small_airport,Navajo Mountain Airport,37.008301,-110.794998,6160.0,,US,04UT,
308,small_airport,Saguache Municipal Airport,38.0990833,-106.1743889,7826.0,,US,04V,
310,small_airport,Manquin Flight Park Ultralightport,37.7144012451,-77.21179962160001,50.0,,US,04VG,
311,small_airport,Lightning Bolt Field Airport,44.4011001587,-72.26360321039999,2156.0,,US,04VT,
312,small_airport,Field of Dreams Airport,46.0228004456,-92.895401001,1021.0,,US,04W,
313,small_airport,Ox Meadows Airport,47.5817985535,-117.43699646,2345.0,,US,04WA,
314,small_airport,Dutch Gap Airstrip,42.523399353,-88.0167007446,760.0,,US,04WI,
315,small_airport,Stillwater Creek Airport,46.95835,-119.63864,1510.0,,US,04WN,
317,small_airport,Pecan Field,33.283933,-98.402861,1130.0,,US,04XA,
319,small_airport,Wasilla Creek Airpark,61.66830063,-149.1880035,620.0,,US,05AK,
321,small_airport,Ozark Skies Airpark,36.000633,-93.57025,1900.0,,US,05AR,
325,small_airport,Pope Valley Airport,38.6106987,-122.39099884,618.0,,US,05CL,
326,small_airport,Rancho De Aereo Airport,40.2149839,-104.9844228,4978.0,,US,05CO,
328,small_airport,Melanie's Airport,30.91889953613281,-86.21829986572266,295.0,,US,05FA,
330,small_airport,Charlton Strip,26.523099899291992,-81.4083023071289,36.0,,US,05FL,
331,small_airport,Raju Airport,32.0713996887207,-84.71440124511719,625.0,,US,05GA,
332,small_airport,Spotts Field,43.13750076293945,-93.06829833984376,1155.0,,US,05IA,
333,small_airport,Running Creek Ranch Airport,45.914101,-114.835999,2969.0,,US,05ID,
334,small_airport,Reichhart Airport,41.02870178222656,-84.99720001220703,795.0,,US,05II,
335,small_airport,Classic Landings Airport,41.156700134277344,-88.0167007446289,635.0,,US,05IL,
336,small_airport,Cooper Airport,39.641998291015625,-86.50420379638672,860.0,,US,05IN,
337,small_airport,Hardy Airport,39.72589874267578,-89.26399993896484,605.0,,US,05IS,
338,small_airport,Darbro Field,37.26620101928711,-95.95919799804688,945.0,,US,05KS,
339,small_airport,Cartersville Airport,37.53575,-84.407303,1070.0,,US,05KY,
340,small_airport,Greg's Flying Service Airport,32.26530075073242,-91.6977996826172,76.0,,US,05LA,
342,small_airport,Grass Roots Airport,31.252148,-92.47569,83.0,,US,05LS,
345,small_airport,Breezecroft Airport,39.250099182128906,-76.2052001953125,20.0,,US,05MD,
346,small_airport,Drisko Airport,44.65700149536133,-67.55919647216797,70.0,,US,05ME,
350,small_airport,Jones Landing,45.815368,-111.152163,4364.0,,US,05MT,
352,small_airport,Mc Kay Airport,41.7221984863,-98.3089981079,2010.0,,US,05NE,
355,small_airport,Baker Ranches Airport,39.0311,-114.088219,5180.0,,US,05NV,
357,small_airport,Dorlon Airpark,41.28839874267578,-81.96260070800781,830.0,,US,05OI,
359,small_airport,Peacock Ranch Airport,45.44150161743164,-117.35099792480467,3500.0,,US,05OR,
362,small_airport,Mills Brothers Airport,40.142799377441406,-77.86190032958984,1210.0,,US,05PS,
363,small_airport,Vernonia Airfield,45.85150146484375,-123.24199676513672,647.0,,US,05S,
364,small_airport,Brandes Air Field,29.80909919738769,-96.26509857177734,276.0,,US,05TA,
365,small_airport,Hilde-Griff Field,30.72209930419922,-97.79139709472656,950.0,,US,05TE,
367,small_airport,Dew Drop Airport,33.12929916381836,-97.3585968017578,750.0,,US,05TS,
368,small_airport,Circle 'A' Ranch Airport,32.128974,-97.404582,608.0,,US,05TX,
370,small_airport,Blanca Airport,37.41109848022461,-105.552001953125,7720.0,,US,05V,
371,small_airport,Providence Airport,37.22420120239258,-78.4186019897461,445.0,,US,05VA,
374,small_airport,Ames Private Airport,42.651100158691406,-88.74590301513672,958.0,,US,05WI,
375,small_airport,Flat Creek Field,48.702222,-118.0475,1570.0,,US,05WN,
377,small_airport,Johnson Memorial Airport,33.07929992675781,-91.54319763183594,105.0,,US,05XS,
378,small_airport,Henning Municipal Airport,46.30379867553711,-95.4394989013672,1455.0,,US,05Y,
379,small_airport,Twisted Sisters Airport,60.540256,-150.813827,260.0,,US,06AA,
380,small_airport,June Lake Airpark,61.627619,-149.575331,425.0,,US,06AK,
382,small_airport,Bondair Airport,35.54449844360352,-92.18489837646484,499.0,,US,06AR,
387,small_airport,Jecan Airport,37.38750076293945,-103.69100189208984,5100.0,,US,06CO,
388,small_airport,William P Gwinn Airport,26.90839958190918,-80.32890319824219,28.0,,US,06FA,
389,small_airport,Grass Roots Airpark,28.641700744628903,-81.88500213623047,105.0,,US,06FD,
393,small_airport,Rich Field,41.841400146484375,-91.83429718017578,880.0,,US,06IA,
394,small_airport,Larkin Airport,43.46269989013672,-116.35900115966795,2750.0,,US,06ID,
395,small_airport,Humm Airport,41.5994987487793,-88.86990356445312,708.0,,US,06IL,
397,small_airport,Sinele Strip,40.5463981628418,-91.27429962158205,695.0,,US,06IS,
407,small_airport,Pike Field Airport,47.6519012451,-92.4167022705,1463.0,,US,06MN,
408,small_airport,Noahs Ark Airport,39.23059844970703,-94.8043975830078,755.0,,US,06MO,
409,small_airport,Torgerson Airport,48.55830001831055,-112.10900115966795,3541.0,,US,06MT,
410,small_airport,Randall Airport,41.43199920654297,-74.3916015625,523.0,,US,06N,
411,small_airport,Tailwinds Airport,34.82749938964844,-78.9302978515625,163.0,,US,06NC,
412,small_airport,Fitterer's Strip,46.7489013671875,-101.66899871826172,2180.0,,US,06ND,
414,small_airport,Cole Farm Airport,42.92839813232422,-70.97309875488281,160.0,,US,06NH,
416,small_airport,Silver Creek Airport,39.098333,-114.150277,5556.0,,US,06NV,
417,small_airport,Murphy Field,42.836797,-76.437614,1100.0,,US,06NY,
419,small_airport,Hal Joy Airfield,41.50979995727539,-80.59120178222656,1160.0,,US,06OH,
420,small_airport,Green Acres Airport,39.73479843139648,-84.3822021484375,915.0,,US,06OI,
422,small_airport,Hayden Mountain Airport,45.4650993347168,-123.08000183105467,850.0,,US,06OR,
423,small_airport,Freefall Oz Airport,41.995792,-78.288152,1440.0,,US,06PA,
426,small_airport,Grawunder Field,29.9419002532959,-96.24610137939452,289.0,,US,06R,
427,small_airport,Beyer Farm Airport,37.58390045166016,-97.25309753417967,1340.0,,US,06SN,
428,small_airport,Glaser Field,30.90850067138672,-97.1168975830078,480.0,,US,06TA,
429,small_airport,Ainsworth Airport,30.312700271606445,-95.0269012451172,129.0,,US,06TE,
430,small_airport,Hunter STOLport,35.69729995727539,-86.95690155029297,640.0,,US,06TN,
432,small_airport,6 Mile Airpark,30.860024,-100.201996,2165.0,,US,06TT,
433,small_airport,Diamond N Ranch Airport,30.057919,-95.812489,215.0,,US,06TX,
434,small_airport,Mount Horeb Field,38.249000549316406,-78.85530090332031,1160.0,,US,06VA,
436,small_airport,Young Private Airport,45.66270065307617,-92.45020294189452,1075.0,,US,06WI,
437,small_airport,Western Airpark,46.92499923706055,-122.5530014038086,394.0,,US,06WN,
438,small_airport,Campbell Field,33.32469940185547,-97.04419708251952,546.0,,US,06XS,
439,small_airport,Herman Municipal Airport,45.83000183105469,-96.1605987548828,1068.0,,US,06Y,
440,small_airport,Pan Lake Strip Airport,61.6959639,-149.9549028,357.0,,US,07AA,
442,small_airport,Morrilton Airport,35.19449996948242,-92.80020141601562,300.0,,US,07AR,
444,small_airport,Blue Hill Airport,44.448001861572266,-68.5697021484375,360.0,,US,07B,
446,small_airport,Richvale Airport,39.49769973754883,-121.77100372314452,100.0,,US,07CL,
447,small_airport,Comanche Creek Airport,39.26359939575195,-104.427001953125,6620.0,,US,07CO,
449,small_airport,Tackaberry Airport,43.06449890136719,-82.72380065917969,764.0,,US,07D,
450,small_airport,Ocean Reef Club Airport,25.325399398804,-80.274803161621,8.0,,US,07FA,OCA
453,small_airport,Alcovy Airport,33.67499923706055,-83.76309967041016,750.0,,US,07GA,
455,small_airport,Interstate Airport,42.2781982421875,-113.30500030517578,4580.0,,US,07ID,
457,small_airport,Gray Airport,39.57369995117188,-85.91390228271484,750.0,,US,07IN,
458,small_airport,Central City Municipal - Larry Reineke Field,41.1125984192,-98.0516967773,1717.0,,US,07K,
459,small_airport,Heape Field,37.73419952392578,-96.93669891357422,1321.0,,US,07KS,
460,small_airport,Blue Lick Airport,38.08060073852539,-85.69329833984375,532.0,,US,07KY,
464,small_airport,Baugher's Orchard Airport,39.60829925537109,-77.0519027709961,700.0,,US,07MD,
466,small_airport,Scott Airstrip,43.864200592041016,-85.0239028930664,1065.0,,US,07MI,
467,small_airport,Dairyview Airport,44.05500030517578,-95.90950012207033,1680.0,,US,07MN,
468,small_airport,Lake Sexton Airport,38.655553,-93.624458,880.0,,US,07MO,
469,small_airport,Glasgow Industrial Airport,48.42110061645508,-106.52799987792967,2762.0,,US,07MT,
470,small_airport,Bermudian Valley Airpark,40.01679992675781,-77.00389862060547,470.0,,US,07N,
471,small_airport,Hawks Meadow Airport,34.83319854736328,-80.7511978149414,625.0,,US,07NC,
474,small_airport,Border Line Farm Airport,39.102239,-114.053472,5120.0,,US,07NV,
477,small_airport,Pleasant Valley Airport,34.633399963378906,-99.03369903564452,1322.0,,US,07OK,
478,small_airport,Bruce's Airport,45.42179870605469,-122.62000274658205,250.0,,US,07OR,
479,small_airport,Folmar Airport,40.998889,-78.125278,1690.0,,US,07PN,
480,small_airport,Churchill Airport,39.77280044555664,-99.36009979248048,1965.0,,US,07SN,
481,small_airport,Salaika Aviation Airport,29.240519,-95.344658,30.0,,US,07TA,
482,small_airport,Cuddihy Field,27.721099853515625,-97.51280212402344,39.0,,US,07TE,
483,small_airport,Corntassel Airport,35.568599700927734,-84.24109649658203,970.0,,US,07TN,
484,small_airport,Cross-Country Estates Airport,30.625,-97.5727996826172,690.0,,US,07TS,
486,small_airport,E Northrop Grumman Airport,41.716667,-112.447222,4480.0,,US,07UT,
487,small_airport,Alpha Hotel Airport,36.81959915161133,-78.78309631347656,350.0,,US,07VA,
488,small_airport,Meadow STOLport,44.44720077514648,-72.91470336914062,801.0,,US,07VT,
493,small_airport,Hill City-Quadna Mountain Airport,46.95550155639648,-93.5969009399414,1289.0,,US,07Y,
494,small_airport,Fisher Airport,61.569639,-149.724439,200.0,,US,08AK,
498,small_airport,Merrymeeting Field,44.0,-69.88710021972656,65.0,,US,08B,
500,small_airport,Kistler Ranch Airport,37.85960006713867,-120.5540008544922,1025.0,,US,08CL,
502,small_airport,Terra Firma Airport,38.73249816894531,-104.04100036621094,5600.0,,US,08CO,
504,small_airport,City of Coalgate Airport,34.53179931640625,-96.23310089111328,615.0,,US,08F,
505,small_airport,Duda Airstrip,26.57979965209961,-81.48370361328125,35.0,,US,08FA,
506,small_airport,Sunniland Ranch Airport,27.363100051879883,-80.77279663085938,65.0,,US,08FD,
507,small_airport,J. H. Hendrie Farms Airport,27.08449935913086,-81.32869720458984,103.0,,US,08FL,
509,small_airport,Sapelo Island Airport,31.425800323486328,-81.28589630126953,12.0,,US,08GA,
510,small_airport,Symms Airport,43.56930160522461,-116.7770004272461,2680.0,,US,08ID,
514,small_airport,Hemmer RLA Restricted Landing Area,37.9777984619,-89.20290374759999,400.0,,US,08IS,
515,small_airport,Alderson Airport,39.034698486328125,-97.58000183105467,1250.0,,US,08KS,
517,small_airport,Boss Airport,36.972599029541016,-84.6260986328125,820.0,,US,08KY,
519,small_airport,Sauer Airport,41.07529830932617,-88.48919677734375,665.0,,US,08LL,
520,small_airport,Aeleron Airport,30.403600692749023,-92.02359771728516,51.0,,US,08LS,
521,small_airport,Wormid Airport,42.29399871826172,-71.49620056152344,360.0,,US,08MA,
523,small_airport,Lindbergh Airport,44.81420135498047,-70.34529876708984,554.0,,US,08ME,
526,small_airport,Twin Oaks Airport,37.395599365234375,-94.28379821777344,955.0,,US,08MO,
527,small_airport,Williams Field,34.66220093,-89.86830139,345.0,,US,08MS,
528,small_airport,Matovich Airport,47.065679,-108.809624,3450.0,,US,08MT,
529,small_airport,Keller Brothers Airport,40.29180145263672,-76.32879638671875,550.0,,US,08N,
530,small_airport,Whiteheart Farm Airport,36.06760025024414,-80.4655990600586,750.0,,US,08NC,
531,small_airport,Brecht Strip,47.32310104370117,-102.0979995727539,1990.0,,US,08ND,
532,small_airport,Laurel Municipal Airport,42.43170166015625,-97.07949829101562,1467.0,,US,08NE,
535,small_airport,Md1 Airport,41.36809921264648,-74.50559997558594,650.0,,US,08NY,
536,small_airport,Kenley Airport,41.29169845581055,-80.5636978149414,1230.0,,US,08OH,
537,small_airport,Parks Airport,34.93149948120117,-95.25830078125,635.0,,US,08OK,
538,small_airport,Broken B Airport,35.408087,-98.605477,1518.0,,US,08OL,
539,small_airport,Saxon Sycan Airport,42.839298248291016,-121.11699676513672,4990.0,,US,08OR,
542,small_airport,Richmond Airport,41.48949813842773,-71.62059783935547,130.0,,US,08R,
544,small_airport,B. J. Mc Combs Sisterdale Airport,29.975331,-98.742451,1447.0,,US,,
545,small_airport,PTC Airport,35.298914,-86.474357,820.0,,US,08TN,
547,small_airport,Cross Wind Airport,32.85820007324219,-97.74749755859376,1040.0,,US,08TX,
548,small_airport,Stevens-Crosby Airport,41.51570129394531,-115.86000061035156,6397.0,,US,08U,
549,small_airport,Springwood Airstrip,37.55400085449219,-79.74980163574219,1000.0,,US,08VA,
552,small_airport,Knolle Ranch Airport,30.479253,-96.504031,280.0,,US,08XA,
553,small_airport,Peterson Airport,29.10810089111328,-95.77749633789062,45.0,,US,08XS,
555,small_airport,West Beaver Airport,61.589361,-149.847333,228.0,,US,09AK,
557,small_airport,Stronghold Airport,31.924848,-110.040007,4970.0,,US,09AZ,
559,small_airport,Alta Sierra Airport,39.113800048828125,-121.05699920654295,2275.0,,US,09CL,
561,small_airport,Cottonwood Field,38.05559921264648,-103.65299987792967,4180.0,,US,09CO,
562,small_airport,Placid Lakes Airport,27.2455997467041,-81.41310119628906,130.0,,US,09FA,
563,small_airport,Cheryl-Lane Landings Airport,28.67110061645508,-82.0873031616211,71.0,,US,09FD,
564,small_airport,Sunnybreeze Airport,27.055599212646484,-81.97059631347656,60.0,,US,09FL,
565,small_airport,Sunbelt Strip,31.120995,-83.67063,230.0,,US,09GA,
567,small_airport,Skydive Iowa Airport,41.74580001831055,-92.4093017578125,820.0,,US,09IA,
568,small_airport,Taylor Ranch Landing Area Airport,45.10390090942383,-114.8550033569336,3835.0,,US,09ID,
569,small_airport,Gibbons Field,38.44729995727539,-86.44499969482422,880.0,,US,09II,
571,small_airport,Gordon Airport,41.12089920043945,-85.42500305175781,850.0,,US,09IN,
573,small_airport,Coffman Airport,38.70700073242188,-95.13829803466795,970.0,,US,09KS,
576,small_airport,Pine Hill Airport,42.46810150146485,-88.74320220947266,1000.0,,US,09LL,
578,small_airport,Kallander Field,42.304298400878906,-71.50589752197266,403.0,,US,09MA,
579,small_airport,Perrotti Skyranch Airfield,43.34080123901367,-70.85469818115234,260.0,,US,09ME,
581,small_airport,W Johnson Field,44.77999877929688,-95.6635971069336,1060.0,,US,09MN,
582,small_airport,Hogue Farm Airport,37.37839889526367,-93.36329650878906,1210.0,,US,09MO,
583,small_airport,Airhaven Airport,41.83259963989258,-73.8759994506836,450.0,,US,09N,
584,small_airport,William Irving Lewis Airport,35.32929992675781,-79.02999877929688,310.0,,US,09NC,
585,small_airport,Summer Hill Farm Airport,41.33330154418945,-96.193603515625,1250.0,,US,09NE,
587,small_airport,Dakota Air Ranch Airport,35.650122,-79.650311,561.0,,US,09NR,
589,small_airport,Ragtime Aerodrome,36.35449981689453,-95.86389923095705,700.0,,US,09OK,
591,small_airport,Eagle Field,40.82699966430664,-77.98809814453125,1780.0,,US,09PA,
593,small_airport,Sullivan Lake State Airport,48.84090042114258,-117.28399658203124,2614.0,,US,09S,
594,small_airport,Lazy G Bar Ranch Airport,33.282101,-97.497002,923.0,,US,,
595,small_airport,Running M Ranch Airport,32.26679992675781,-97.86699676513672,787.0,,US,09TE,
597,small_airport,Pitcock Rosillos Mountain Ranch Airport,29.48240089416504,-103.16500091552734,3100.0,,US,09TS,
598,small_airport,Smokey Mountain Ranch Airport,30.737626,-102.02332,2522.0,,US,09TX,
599,small_airport,Alum Ridge STOLport,36.97650146484375,-80.493896484375,2375.0,,US,09VA,
603,small_airport,Parkway Farm Strip,44.00360107421875,-91.30760192871094,705.0,,US,09WI,
607,small_airport,Kalifornsky Meadows Airport,60.491537,-151.235253,65.0,,US,0AA7,
608,small_airport,Pilot Station Airport,61.934601,-162.899994,305.0,,US,,PQS
609,small_airport,Scotts Airport,64.39250183105469,-146.86199951171875,800.0,,US,0AK0,
610,small_airport,Anderson Lake Airport,61.61690139770508,-149.32200622558594,463.0,,US,0AK1,
611,small_airport,Yentna Bend Strip,61.725556,-150.678611,81.0,,US,0AK2,
612,small_airport,Parker Lake Airport,62.0359001159668,-150.49400329589844,250.0,,US,0AK3,
613,small_airport,Young Creek Airport,61.355352,-142.731832,1580.0,,US,0AK5,
614,small_airport,Victory Airport,61.80108,-147.945156,1800.0,,US,0AK6,
615,small_airport,Bradley Lake Hydroelectric Project Airstrip,59.776005,-150.963285,18.0,,US,0AK7,
617,small_airport,Falcon Lake Strip,61.33259963989258,-150.0590057373047,110.0,,US,0AK9,
619,small_airport,Resort Airport,30.44389915466309,-87.65689849853516,97.0,,US,0AL1,
623,small_airport,Flomaton Airport,31.03219985961914,-87.25279998779297,247.0,,US,0AL5,
627,small_airport,Wilson Creek Airport,34.849998474121094,-87.63249969482422,590.0,,US,0AL9,
630,small_airport,Mission Field-Marotti Memorial Airport,35.26679992675781,-90.35009765625,217.0,,US,0AR2,
640,small_airport,Western Sky Airport,33.778166,-113.640625,1930.0,,US,0AZ2,
641,small_airport,Flying Bucket Ranch Airport,32.9822998046875,-112.28700256347656,1505.0,,US,0AZ4,
642,small_airport,Castle Well Airport,33.865944,-112.603265,2080.0,,US,0AZ5,
645,small_airport,Brewer Airport,44.76369857788086,-68.7677993774414,124.0,,US,0B2,
646,small_airport,Warren-Sugarbush Airport,44.1166992188,-72.8271026611,1470.0,,US,0B7,
647,small_airport,Triple R Airport,39.48780059814453,-94.78050231933594,1000.0,,US,0C1,
648,small_airport,Hinckley Airport,41.77090072631836,-88.70339965820312,760.0,,US,0C2,
649,small_airport,Canadian Lakes Airport,43.57640075683594,-85.28060150146484,960.0,,US,0C5,
650,small_airport,Grandpas' Farm Mendota Airport,41.521999,-89.132599,727.0,,US,IL22,
651,small_airport,Cushing Field Ltd Airport,41.51950073242188,-88.60559844970703,640.0,,US,0C8,
656,small_airport,Crawford Airport,34.587501525878906,-120.01300048828124,570.0,,US,0CA3,
657,small_airport,Shepherd Farm Airport,34.6222,-120.065002,660.0,,US,0CA4,
658,small_airport,Hoffman Private Airport,33.14310073852539,-116.74500274658205,3100.0,,US,0CA5,
659,small_airport,Emory Ranch Airport,32.7494444,-116.0161111,480.0,,US,0CA6,
661,small_airport,Ward Ranch Airport,33.4277992249,-116.843002319,2500.0,,US,0CA8,
662,small_airport,Blech Ranch Airport,35.592797,-120.338058,1140.0,,US,0CA9,
665,small_airport,Foxx Valley Airport,38.652500152600005,-104.23400116,5800.0,,US,0CD2,
668,small_airport,Pinon Canyon Airport,37.4905014038,-104.143997192,5686.0,,US,0CD5,
670,small_airport,Fox Hole Airport,40.004699707,-105.071998596,5135.0,,US,0CD7,
673,small_airport,Yosemite Hidden Lake Ranch Airport,37.11800003049999,-119.913002014,500.0,,US,0CL0,
674,small_airport,Krey Field Airport,34.5694007874,-117.555999756,3042.0,,US,0CL1,
676,small_airport,John Nichol's Field Airport,32.633098602299995,-116.892997742,490.0,,US,0CL3,
679,small_airport,Bohunk's Airpark,34.6946983337,-118.282997131,2410.0,,US,0CL6,
681,small_airport,Tera Ultralightport,35.5913009644,-117.634002686,2510.0,,US,0CL8,
683,small_airport,Fiorini Ranch Airport,37.452178,-120.764758,140.0,,US,0CN1,
684,small_airport,Sutter Butte Dusters Airport,39.228622,-121.688265,67.0,,US,0CN2,
686,small_airport,Dave's Airport,40.0332984924,-105.124000549,5170.0,,US,0CO1,
687,small_airport,Crested Butte Airpark,38.851918,-106.928341,8980.0,,US,0CO2,CSE
690,small_airport,Chenoweth Airport,39.8333015442,-103.589996338,4697.0,,US,0CO5,
691,small_airport,Flying M & M Ranch Airport,38.2193984985,-108.212997437,8000.0,,US,0CO6,
693,small_airport,Cartwheel Airport,40.2083015442,-105.013000488,5010.0,,US,0CO8,
694,small_airport,Van Treese Airport,37.6582984924,-106.033996582,7613.0,,US,0CO9,
705,small_airport,Wilber Municipal Airport,40.47499847412109,-96.98780059814452,1400.0,,US,0D6,
706,small_airport,Ada Airport,40.79059982299805,-83.8291015625,949.0,,US,0D7,
707,small_airport,Air Park North,44.958035,-84.958859,1170.0,,US,MI30,
708,small_airport,Corydon Airport,40.75450134277344,-93.24130249023438,1020.0,,US,0E9,
710,small_airport,Ott's Landing Airport,27.3039,-81.880403,65.0,,US,0FA1,
713,small_airport,The 2A Ranch Airport,29.2675,-81.230103,40.0,,US,0FD0,
716,small_airport,Dugger Field,30.496400833129883,-86.09380340576172,70.0,,US,0FD3,
718,small_airport,Breezy Knoll Airport,30.820199966430664,-86.34439849853516,235.0,,US,0FD5,
720,small_airport,Joy Farms Airport,30.652099609375,-86.1093978881836,290.0,,US,0FD9,
721,small_airport,Harper's Fly-In Ranch Airport,26.730600357055664,-81.16390228271484,30.0,,US,0FL0,
727,small_airport,Stanchester Airport,27.806199,-82.141365,96.0,,US,27FA,
730,small_airport,Mc Daniel Ranch Inc. Airport,26.3938999176,-81.0231018066,18.0,,US,0FL9,
731,small_airport,North Buffalo Suburban Airport,43.103199,-78.7033,588.0,,US,K0G0,
733,small_airport,Halls Flying Ranch Airport,33.356201171875,-84.36710357666016,800.0,,US,0GA0,
734,small_airport,Mustang Field,34.477901458740234,-82.89710235595703,693.0,,US,0GA1,
735,small_airport,"Airnautique, Inc. Airport",34.377899169921875,-82.9457015991211,720.0,,US,0GA2,
736,small_airport,Ayresouth Airport,33.77009963989258,-85.06079864501953,1287.0,,US,0GA3,
737,small_airport,Paradise Falls Airport,33.812901,-83.505699,736.0,,US,,
739,small_airport,Sunset Strip,33.7333984375,-83.81880187988281,780.0,,US,0GA6,
741,small_airport,Paso Fino Farm Airport,30.88710021972656,-83.41600036621094,200.0,,US,0GA8,
742,small_airport,Roberta Industrial Park Airport,32.71390151977539,-84.02749633789062,505.0,,US,0GA9,
743,small_airport,Pinewood Airport,33.782100677490234,-84.80079650878906,1085.0,,US,0GE0,
744,small_airport,Crystal Lake Airpark,31.66550064086914,-83.44709777832031,327.0,,US,0GE1,
745,small_airport,Lookout Mountain Airport,34.90470123291016,-85.45970153808594,563.0,,US,0GE3,
746,small_airport,Pecan Patch Airstrip,33.33140182495117,-84.2667007446289,860.0,,US,0GE4,
747,small_airport,Mountain Airpark,34.561798095703125,-83.7135009765625,1438.0,,US,0GE5,
748,small_airport,Carpenter Airport,33.520301818847656,-82.37249755859375,450.0,,US,0GE7,
749,small_airport,Pegasus Ranch Airport,32.69390106201172,-81.79859924316406,230.0,,US,0GE9,
750,small_airport,Kahoka Municipal Airport,40.42160034179688,-91.706298828125,700.0,,US,0H7,
751,small_airport,Brazil Clay County Airport,39.47669982910156,-87.09970092773438,645.0,,US,0I2,
755,small_airport,Hawkeye Airport,42.43470001220703,-92.3280029296875,883.0,,US,0IA3,
756,small_airport,Sharar Field,41.03340148925781,-91.05010223388672,700.0,,US,0IA4,
757,small_airport,Moore Private Airport,40.87220001220703,-93.26270294189452,1060.0,,US,0IA5,
758,small_airport,Rinehart Airport,41.659698486328125,-92.28990173339844,920.0,,US,0IA6,
760,small_airport,Hannen Airport,42.22800064086914,-91.7509994506836,925.0,,US,0IA8,
762,small_airport,South Fork Ranch Airport,43.60639953613281,-115.10700225830078,4861.0,,US,0ID0,
763,small_airport,Ziggy's Airport,42.64120101928711,-114.6050033569336,3225.0,,US,0ID1,
764,small_airport,Flying Joseph Ranch Airport,44.4429016113,-113.773002625,5600.0,,US,0ID2,
765,small_airport,Coyote Run Airport,43.075801849365234,-115.6729965209961,3150.0,,US,0ID3,
766,small_airport,Black Butte Ranch Airport,43.047698974609375,-114.47000122070312,4020.0,,US,0ID4,
767,small_airport,Ez Lope Ranch Airport,43.0531005859375,-116.46199798583984,3130.0,,US,0ID5,
769,small_airport,Z X Ranch Airport,43.230308,-116.763192,3820.0,,US,0ID7,
770,small_airport,Pinnacle Airport,45.775197,-116.178475,3800.0,,US,0ID8,
771,small_airport,Corral Creek Airport,46.785278,-116.471131,2895.0,,US,0ID9,
772,small_airport,Chuck's Airport,40.2599983215332,-85.25330352783203,955.0,,US,0II0,
773,small_airport,Unsicker Airport,40.4281005859375,-86.1532974243164,816.0,,US,0II1,
774,small_airport,Creighton Airport,41.457298278808594,-86.12439727783203,820.0,,US,0II2,
776,small_airport,Marshall Field,40.65950012207031,-86.8572006225586,705.0,,US,0II5,
777,small_airport,Kropf Airport,41.64310073852539,-85.82969665527344,810.0,,US,0II6,
778,small_airport,Frost Field,39.79560089111328,-85.78610229492188,900.0,,US,0II7,
779,small_airport,Sutton's Field,41.324798583984375,-87.47589874267578,740.0,,US,0II8,
780,small_airport,Winters Airport,39.53419876098633,-86.57720184326172,755.0,,US,0II9,
783,small_airport,Griffin Airport,38.803056,-88.997778,541.0,,US,0IL2,
784,small_airport,Flying B Ranch Airport,40.15700149536133,-87.67449951171875,696.0,,US,0IL3,
788,small_airport,Walter Airport,41.872501373291016,-88.72370147705078,890.0,,US,0IL8,
789,small_airport,Jack W. Watson Airport,41.85480117797852,-88.78730010986328,880.0,,US,0IL9,
790,small_airport,Snider Field,38.5,-87.59590148925781,400.0,,US,0IN1,
791,small_airport,The Lazy K Airport,40.82780075073242,-85.08609771728516,835.0,,US,0IN2,
792,small_airport,Graves Landing Strip,41.11669921875,-86.66670227050781,704.0,,US,0IN3,
793,small_airport,Air Park Field,41.12779998779297,-84.94719696044922,750.0,,US,0IN4,
794,small_airport,Byrne Field,38.32899856567383,-86.03359985351562,800.0,,US,0IN5,
797,small_airport,Parrish Airport,37.99309921264648,-87.95140075683594,390.0,,US,0IN9,
800,small_airport,Cady Aerial RLA Restricted Landing Area,41.6608009338,-89.69360351559999,630.0,,US,0IS3,
801,small_airport,Dawson Farms Airport,39.76250076293945,-88.67150115966797,670.0,,US,0IS4,
805,small_airport,Abbeville Municipal Airport,31.600093,-85.238353,468.0,,US,,
806,small_airport,Flying Ten Airport,29.618000030517575,-82.50869750976562,85.0,,US,0J8,
807,small_airport,Dobie's Airport,36.178496,-95.580468,610.0,,US,,
808,small_airport,J V Ranch Airport,38.63330078125,-95.92530059814452,1180.0,,US,0KS0,
810,small_airport,Camp Chippewa Airport,38.56669998168945,-95.3668975830078,1120.0,,US,0KS3,
811,small_airport,Norris Airport,38.807239,-95.370056,1065.0,,US,0KS4,
812,small_airport,Kendrigan Airport,37.45220184326172,-97.31780242919922,1240.0,,US,0KS6,
813,small_airport,Mono Aircraft Airport,37.69279861450195,-97.88639831542967,1450.0,,US,0KS7,
814,small_airport,Pearce Field,37.38249969482422,-95.37470245361328,950.0,,US,0KS8,
815,small_airport,Lmn 120 Airport,37.515899658203125,-96.9197998046875,1330.0,,US,0KS9,
816,small_airport,Owen Air Park,38.62279891967773,-84.77890014648438,890.0,,US,0KY0,
817,small_airport,Arnemann Farms Airport,36.76559829711914,-86.61830139160156,504.0,,US,0KY1,
820,small_airport,Cambron Field,37.56439971923828,-87.08190155029297,427.0,,US,0KY4,
821,small_airport,Boyce Wafer Farm Airport,36.812346,-86.377427,600.0,,US,,
823,small_airport,Clinton-Hickman County Airport,36.63610076904297,-88.99859619140625,360.0,,US,0KY7,
826,small_airport,Lida Junction Airport,37.485801696777344,-117.19100189208984,4684.0,,US,0L4,
827,small_airport,Goldfield Airport,37.722751,-117.236368,5680.0,,US,NV50,
830,small_airport,Double H Ranch Airport,30.229400634765625,-90.97339630126952,15.0,,US,0LA1,
832,small_airport,Belcher Airpatch Airport,32.749298095703125,-93.87349700927734,280.0,,US,0LA3,
838,small_airport,Rebel Field,30.586299896240234,-90.86150360107422,74.0,,US,0LA9,
839,small_airport,Kaufield Airport,42.26470184326172,-88.7300033569336,783.0,,US,0LL0,
840,small_airport,Jerseyville Aviation Inc Airport,39.094200134277344,-90.31340026855467,604.0,,US,0LL1,
841,small_airport,Murk's Strip,40.738899231,-90.3806991577,700.0,,US,0LL2,
842,small_airport,Koenig Airport,39.05500030517578,-90.34210205078124,614.0,,US,0LL3,
843,small_airport,Flaherty Field,41.4192008972168,-89.12310028076172,664.0,,US,0LL4,
844,small_airport,Busboom RLA Restricted Landing Area,40.1100006104,-88.07839965820001,675.0,,US,0LL5,
845,small_airport,Gord Airport,41.69839859008789,-88.60759735107422,710.0,,US,0LL6,
848,small_airport,Theriot Field,29.74970054626465,-90.73580169677734,13.0,,US,0LS0,
852,small_airport,Trahan Ultralightport,30.306900024414062,-92.12979888916016,40.0,,US,0LS5,
853,small_airport,Dufour Airport,30.78770065307617,-92.05039978027344,42.0,,US,0LS6,
854,small_airport,Morgan Field,30.61280059814453,-91.48419952392578,36.0,,US,0LS7,
855,small_airport,Lonesome Dove Airfield,30.28580093383789,-92.94129943847656,34.0,,US,0LS8,
856,small_airport,Huenefeld Airport,32.513603,-91.98657,72.0,,US,0LS9,
866,small_airport,Taylor Field,39.18730163574219,-75.7927017211914,75.0,,US,0MD1,
867,small_airport,Squier Landing Airport,38.287781,-76.867575,16.0,,US,0MD2,
869,small_airport,Pond View Private Airport,39.26679992675781,-76.18720245361328,47.0,,US,0MD4,
871,small_airport,Walters Airport,39.38119888305664,-77.10579681396484,750.0,,US,0MD6,
875,small_airport,Peasley Field,44.742469,-68.474403,271.0,,US,0ME4,
877,small_airport,Sugar Springs Airpark,44.140301,-84.4375,940.0,,US,,
879,small_airport,Kelleys Airport,44.633399963378906,-84.4833984375,1000.0,,US,0MI3,
880,small_airport,Lesterson-Dempsey Airstrip,46.270198,-87.386496,1120.0,,US,0MI4,
881,small_airport,Young's Airport,46.38750076293945,-85.18399810791016,800.0,,US,0MI6,
886,small_airport,Brinkman Airport,44.2625007629,-94.0697021484,1020.0,,US,0MN1,
890,small_airport,Pankratz Airport,44.30720138549805,-94.91690063476562,1033.0,,US,0MN5,
891,small_airport,Matson Field,43.662200927734375,-92.404296875,1365.0,,US,0MN6,
895,small_airport,Ferros Ranch-Aero Airport,38.410301208496094,-93.8501968383789,775.0,,US,0MO0,
896,small_airport,Flying G Airport,38.54449844360352,-94.0947036743164,920.0,,US,0MO1,
897,small_airport,Short-N-Ruff Airport,37.78670120239258,-90.78009796142578,950.0,,US,0MO2,
900,small_airport,Joe D Lewis Airport,40.133399963378906,-92.1001968383789,780.0,,US,0MO5,
901,small_airport,Hall Airport,40.11669921875,-92.26689910888672,850.0,,US,0MO6,
903,small_airport,Sloan's Airport,39.14059829711914,-90.73680114746094,437.0,,US,0MO8,
905,small_airport,Topton Air Estates Airport,32.474998474121094,-88.61669921875,453.0,,US,0MS0,
906,small_airport,Franklin Field,31.425199508666992,-90.90290069580078,200.0,,US,0MS1,
907,small_airport,Morgan Field,31.54179954528809,-89.3917007446289,300.0,,US,0MS2,
910,small_airport,Lewis Air Service Airport,33.39179992675781,-90.91680145263672,120.0,,US,0MS5,
912,small_airport,Hale Field,34.34260177612305,-89.14309692382812,346.0,,US,0MS7,
913,small_airport,Catfish Point Airport,33.69929885864258,-91.16510009765624,154.0,,US,0MS8,
914,small_airport,Shenandoah Valley Farms Airport,33.80070114135742,-89.02729797363281,300.0,,US,0MS9,
915,small_airport,Williams Field,47.497501373291016,-112.39099884033205,4070.0,,US,0MT1,
918,small_airport,Kimp Airport,46.27859878540039,-114.14099884033205,3510.0,,US,0MT4,
919,small_airport,Cottonwood Airport,45.63420104980469,-108.8489990234375,3350.0,,US,0MT5,
920,small_airport,Hanson Airport,48.04059982299805,-114.6790008544922,3900.0,,US,0MT6,
921,small_airport,Pinehurst Ranch Airport,47.66080093383789,-115.40399932861328,2460.0,,US,0MT7,
923,small_airport,Lone Hawk Airport,48.48329925537109,-114.49299621582033,3284.0,,US,0MT9,
924,small_airport,Eagle Field,37.23469924926758,-91.09359741210938,784.0,,US,0MU0,
925,small_airport,Sunderland Airport,37.246700286865234,-94.17389678955078,1027.0,,US,0MU1,
928,small_airport,Slaughter Airport,39.6161003112793,-92.8668975830078,800.0,,US,0MU4,
931,small_airport,Lambs Field,38.875,-94.13970184326172,1070.0,,US,0MU7,
932,small_airport,Prince STOLport,37.43870162963867,-89.75900268554688,582.0,,US,0MU8,
933,small_airport,RPM Airport,37.337894,-93.164084,1282.0,,US,0MU9,
936,small_airport,Roosterville Airport,39.29109954833984,-94.44219970703124,1004.0,,US,0N0,
937,small_airport,Chandelle Airport,39.202301,-75.485497,22.0,,US,,
939,small_airport,Albanna Aviation Airport,39.012602,-75.533501,50.0,,US,,
940,small_airport,Goerger Airport,46.24549865722656,-97.03759765625,1045.0,,US,0NA1,
941,small_airport,Sorlie Airport,48.0010986328125,-99.56289672851562,1580.0,,US,0NA5,
942,small_airport,Boyd's Turf Airport,46.75,-103.8010025024414,2750.0,,US,0NA9,
950,small_airport,Lindsay Airport,36.36481,-79.99614,700.0,,US,0NC7,
951,small_airport,Flying S Ranch Airport,35.755699,-80.735298,830.0,,US,0NC8,
953,small_airport,Gilbertson Field,47.92919921875,-99.40039825439452,1550.0,,US,0ND0,
954,small_airport,Schumacher Strip,46.05500030517578,-99.91709899902344,2020.0,,US,0ND6,
955,small_airport,Saville Private Airport,46.46530151367188,-100.1050033569336,1961.0,,US,0ND7,
956,small_airport,Merrihew Airport,41.84999847412109,-101.9499969482422,3815.0,,US,0NE0,
957,small_airport,Runner Landing Area Airport,42.40719985961914,-101.93199920654295,3760.0,,US,0NE1,
961,small_airport,Newman Airport,41.02109909057617,-102.01799774169922,3525.0,,US,0NE5,
962,small_airport,Frager Field,40.43330001831055,-98.0706024169922,1765.0,,US,0NE6,
969,small_airport,Fla-Net Airport,40.88589859008789,-74.70570373535156,1040.0,,US,0NJ5,
970,small_airport,Dix Field,39.31679916381836,-74.63289642333984,8.0,,US,0NJ6,
974,small_airport,Berdick Field,42.33399963378906,-78.79090118408203,1690.0,,US,0NK0,
975,small_airport,Spring Brook Airport,43.361698150634766,-76.22019958496094,450.0,,US,0NK1,
976,small_airport,Westwind Farm Airport,42.9833984375,-74.01619720458984,800.0,,US,0NK2,
977,small_airport,Seven Gullies Airport,42.695899963378906,-77.79219818115234,600.0,,US,0NK3,
980,small_airport,Lapeer Flyer Airport,42.43840026855469,-76.08879852294922,1280.0,,US,0NK6,
984,small_airport,Columbus Airport,31.823898,-107.629924,4024.0,,US,0NM0,
985,small_airport,Negrito Airstrip,33.527901,-108.541001,8143.0,,US,0NM7,
987,small_airport,Bennetts Airport,43.70009994506836,-73.98290252685547,1040.0,,US,0NY0,
988,small_airport,Russell Field,43.139198303222656,-73.6531982421875,260.0,,US,0NY1,
989,small_airport,Kermizian Airport,43.31399917602539,-74.93209838867188,1440.0,,US,0NY3,
992,small_airport,Murphys Landing Strip,43.03760147094727,-74.1843032836914,940.0,,US,0NY7,
993,small_airport,Wenskoski Field,42.99729919433594,-74.24539947509766,800.0,,US,0NY8,
995,small_airport,Corning Municipal Airport,39.94359970092773,-122.1709976196289,292.0,,US,0O4,
996,small_airport,Ward Field,41.845699310302734,-123.98500061035156,356.0,,US,0O9,
1002,small_airport,Fry Field,39.60060119628906,-84.01969909667969,775.0,,US,0OH6,
1003,small_airport,Apple Airport,40.1432991027832,-84.1718978881836,1000.0,,US,0OH7,
1004,small_airport,Fry Airport,40.18840026855469,-84.256103515625,900.0,,US,0OH8,
1008,small_airport,Unger Field,39.35979843139648,-83.4177017211914,940.0,,US,0OI2,
1009,small_airport,Galloway Airport,41.38209915161133,-82.71610260009766,643.0,,US,0OI3,
1010,small_airport,Salt Box Airport,41.32426452636719,-81.15930938720703,1250.0,,US,0OI4,
1011,small_airport,Victor's Landing Airport,41.83810043334961,-80.6436996459961,860.0,,US,0OI6,
1012,small_airport,Hidden Quarry Airport,38.89450073242188,-83.1135025024414,830.0,,US,0OI9,
1013,small_airport,Edmond Airport,35.68339920043945,-97.43360137939452,1169.0,,US,0OK0,
1014,small_airport,Mckey Airport,34.65700149536133,-97.40170288085938,1056.0,,US,0OK1,
1016,small_airport,Mckinley Ranch Airport,35.614465,-98.534403,1420.0,,US,0OK3,
1017,small_airport,Rock Creek Farm Airport,34.66059875488281,-96.25360107421876,730.0,,US,0OK4,
1018,small_airport,Chappell Airport,35.88890075683594,-97.40029907226562,1070.0,,US,0OK5,
1019,small_airport,Ellis/Harvey Airport,35.801700592041016,-97.38610076904295,1220.0,,US,0OK6,
1022,small_airport,Crystal Airport,36.2134017944336,-96.63700103759766,1016.0,,US,0OK9,
1025,small_airport,Long Ranch Airport,42.01900100708008,-121.7040023803711,4090.0,,US,0OR3,
1027,small_airport,East Oregon Cattle Co Airport,42.5035018921,-122.855003357,1345.0,,US,0OR5,
1028,small_airport,Rome Service Airport,42.83399963378906,-117.62899780273438,3387.0,,US,0OR6,
1029,small_airport,Marr Field,44.854000091552734,-123.26399993896484,275.0,,US,0OR7,
1030,small_airport,Sutton on Rogue Airport,42.48479843139648,-122.86599731445312,1260.0,,US,0OR8,
1031,small_airport,Hanel Field,45.59260177612305,-121.54900360107422,1626.0,,US,0OR9,
1033,small_airport,Van Pak Airport,39.83219909667969,-99.5687026977539,2213.0,,US,0P1,
1034,small_airport,Shoestring Aviation Airfield,39.7947998046875,-76.64720153808594,1000.0,,US,0P2,
1035,small_airport,Philadelphia Gliderport,40.331227,-75.248125,670.0,,US,3PA2,
1037,small_airport,Haunstein Ultralightport,40.31679916379999,-77.1247024536,600.0,,US,0PA2,
1038,small_airport,Robbins Farm Airport,41.7495002746582,-76.76020050048828,1207.0,,US,0PA3,
1039,small_airport,Ecko Field,40.23759841918945,-76.72470092773438,380.0,,US,0PA4,
1040,small_airport,Fisher Airport,41.49449920654297,-79.83090209960938,1500.0,,US,0PA5,
1041,small_airport,Hostetler Airport,40.63090133666992,-77.85030364990234,760.0,,US,0PA6,
1045,small_airport,Fletcher Airport,41.44359970092773,-80.15390014648438,1335.0,,US,0PN0,
1047,small_airport,Flying Acres Airport,41.07310104370117,-80.07029724121094,1247.0,,US,0PN2,
1049,small_airport,Kitner Airport,40.4128990173,-77.24140167239999,960.0,,US,0PN4,
1050,small_airport,Nichols Airport,41.77920150756836,-79.59839630126953,1761.0,,US,0PN5,
1051,small_airport,Memmi Airport,40.16899871826172,-77.99250030517578,1138.0,,US,0PN6,
1052,small_airport,Drillmore Acres Airport,40.128299713134766,-77.63140106201172,680.0,,US,0PN7,
1053,small_airport,Shriver Airport,41.61669921875,-79.68309783935547,1560.0,,US,0PN8,
1054,small_airport,Paul Personal Use Airport,41.71950149536133,-79.67780303955078,1645.0,,US,0PN9,
1055,small_airport,Frederick Airpark,41.37089920043945,-79.3416976928711,1560.0,,US,0PS0,
1058,small_airport,Carsonville Airport,40.49039840698242,-76.7666015625,800.0,,US,0PS3,
1059,small_airport,Old Orchard Airport,41.008399963378906,-78.56089782714844,1980.0,,US,0PS4,
1062,small_airport,Harman Airport,40.52230072021485,-76.84549713134766,720.0,,US,0PS7,
1065,small_airport,Sonoma Valley Airport,38.2234992980957,-122.4499969482422,10.0,,US,0Q3,
1066,small_airport,Selma Airport,36.58160018920898,-119.65799713134766,305.0,,US,0Q4,
1068,small_airport,Sonoma Skypark Airport,38.2577018737793,-122.43399810791016,20.0,,US,0Q9,
1069,small_airport,Lincoln Municipal Airport,38.403900146484375,-93.33300018310548,940.0,,US,0R2,
1070,small_airport,The Red River Airport,31.990699768066406,-93.30740356445312,177.0,,US,0R7,
1071,small_airport,Plainville Airpark,39.1945,-99.303398,2182.0,,US,,
1072,small_airport,Meadow Creek USFS Airport,47.847956,-113.416758,3984.0,,US,,
1074,small_airport,Nez Perce Municipal Airport,46.23740005493164,-116.24299621582033,3201.0,,US,0S5,
1075,small_airport,Lenling Airport,45.42499923706055,-100.89199829101562,2142.0,,US,0SD0,
1076,small_airport,Lodi Airport,42.972198486328125,-96.9802017211914,1200.0,,US,0SD1,
1078,small_airport,Bledsoe Ranch Airport,45.26940155029297,-103.21700286865234,2872.0,,US,0SD3,
1081,small_airport,Oasis Ranch Airport,44.28889846801758,-101.82599639892578,2580.0,,US,0SD6,
1082,small_airport,Porch Ranch Airport,43.52439880371094,-101.73400115966795,2775.0,,US,0SD7,
1083,small_airport,Juhnke Airport,43.78279876708984,-100.29299926757812,1900.0,,US,0SD8,
1089,small_airport,Smith Farms Airport,34.213702,-101.923342,3487.0,,US,0TA2,
1090,small_airport,Tate Ranch Airport,30.30430030822754,-102.13800048828124,2650.0,,US,0TA3,
1091,small_airport,Erco Field,32.49789810180664,-96.27050018310548,395.0,,US,0TA4,
1094,small_airport,Alta Vista Ranch Airport,30.1481990814209,-103.89299774169922,4702.0,,US,0TA7,
1095,small_airport,Womack Plantation Airport,33.84870147705078,-95.4072036743164,410.0,,US,0TA8,
1097,small_airport,Robertson Ranch Airport,29.69300079345703,-101.16200256347656,1663.0,,US,0TE0,
1100,small_airport,Buzz Field,33.92919921875,-100.84200286865234,2614.0,,US,0TE3,
1101,small_airport,Hilltop Lakes Airport,31.08099937438965,-96.21520233154295,501.0,,US,0TE4,
1102,small_airport,Santa Maria Ranch Airport,27.433799743652344,-99.18589782714844,516.0,,US,0TE5,
1103,small_airport,Gorman Airport,32.20429992675781,-98.66560363769533,1452.0,,US,0TE6,
1104,small_airport,LBJ Ranch Airport,30.251800537100003,-98.6224975586,1515.0,,US,0TE7,JCY
1107,small_airport,R & S Buzzard Airport,35.676700592041016,-86.89669799804688,810.0,,US,0TN0,
1109,small_airport,Village Airport,35.65589904785156,-84.18550109863281,920.0,,US,0TN2,
1112,small_airport,Mc Donald Airport,35.867401123,-86.4978027344,600.0,,US,0TN5,
1113,small_airport,Riner Farm Airport,36.18339920043945,-84.0990982055664,1125.0,,US,0TN6,
1118,small_airport,Dooley Airport,33.09039,-97.267851,650.0,,US,0TS1,
1121,small_airport,Ullrich Airport,30.09189987182617,-96.79499816894533,410.0,,US,0TS4,
1122,small_airport,Lake Bay Gall Airport,30.4419002532959,-95.1863021850586,230.0,,US,0TS5,
1124,small_airport,Flying U Airport,32.834578,-98.125677,978.0,,US,0TS7,
1125,small_airport,Flying 'K' Ranch Ultralightport,26.150400161743164,-97.88359832763672,81.0,,US,0TS8,
1128,small_airport,Nassau Bay Airport,32.41960144042969,-97.71279907226562,714.0,,US,0TX0,
1129,small_airport,Pecan Plantation Airport,32.354000091552734,-97.67639923095705,710.0,,US,0TX1,
1134,small_airport,Elm Creek Airpark,29.505199432373047,-97.99690246582033,550.0,,US,0TX6,
1136,small_airport,Jacobia Field,33.18040084838867,-96.04329681396484,570.0,,US,0TX8,
1137,small_airport,Card Aerodrome,33.250099182128906,-96.1168975830078,540.0,,US,0TX9,
1138,small_airport,Landmark US Forest Service Airport,44.6423988342,-115.532997131,6662.0,,US,0U0,
1139,small_airport,Warm Springs Creek Airport,44.1421012878418,-115.31400299072266,4831.0,,US,0U1,
1140,small_airport,Copper Basin Airport,43.80179977416992,-113.83100128173828,7920.0,,US,0U2,
1141,small_airport,Mahoney Creek US Forest Service Airport,44.744598,-114.920998,4618.0,,US,,
1142,small_airport,Hollow Top Airport,43.32490158081055,-113.58799743652344,5359.0,,US,0U7,
1143,small_airport,May Airport,44.610198974609375,-113.89600372314452,5324.0,,US,0U8,
1144,small_airport,Lee Williams Memorial Airport,44.46160125732422,-116.75800323486328,2617.0,,US,0U9,
1146,small_airport,Johnson Fox Field,37.23350143432617,-79.58529663085938,900.0,,US,0VA1,
1147,small_airport,Riverwood Airport,37.79650115966797,-79.7667007446289,1020.0,,US,0VA2,
1148,small_airport,Hunt Airport,37.69879913330078,-77.09529876708984,150.0,,US,0VA3,
1149,small_airport,Worley Field,36.95009994506836,-79.87950134277344,1219.0,,US,0VA4,
1150,small_airport,Coffman Field,37.6941443722,-77.66089439390001,280.0,,US,0VA5,
1152,small_airport,Flatrock Air Strip,37.52320098876953,-77.81939697265625,425.0,,US,0VA7,
1153,small_airport,Jayarz Airport,37.28580093383789,-77.79119873046875,210.0,,US,0VA8,
1154,small_airport,Handy Strip,37.4473991394043,-76.45379638671875,8.0,,US,0VA9,
1155,small_airport,Brooklyn Airport,37.68889999389648,-77.10140228271484,145.0,,US,0VI1,
1159,small_airport,Dwight Field,46.61709976196289,-122.82599639892578,350.0,,US,0WA1,
1160,small_airport,Curtis Airport,46.59040069580078,-123.1050033569336,254.0,,US,0WA2,
1169,small_airport,Mort's Landing Airport,45.5071983337,-92.1418991089,1255.0,,US,0WI1,
1170,small_airport,Doering Farms Airfield,43.20140075683594,-88.3333969116211,910.0,,US,0WI2,
1172,small_airport,Snow Crest Ranch Airport,43.82939910888672,-89.35260009765625,810.0,,US,0WI4,
1173,small_airport,Crash In International Airport,42.793399810791016,-87.8906021118164,755.0,,US,0WI5,
1174,small_airport,Simandl Field/Private Airport,42.8736000061,-88.1578979492,805.0,,US,0WI6,
1175,small_airport,With Wings And A Halo Airport,44.1335983276,-88.4992980957,760.0,,US,0WI7,
1176,small_airport,Oconomowoc Airport,43.13890075683594,-88.47229766845703,885.0,,US,0WI8,
1177,small_airport,Mc Manus Hoonch-Na-Shee-Kaw Airport,42.9314002991,-89.3386993408,931.0,,US,0WI9,
1178,small_airport,Rucilla's Roost Airport,48.137298583984375,-123.11299896240234,15.0,,US,0WN0,
1179,small_airport,Shangri-La Airport,46.75189971923828,-120.60199737548828,1500.0,,US,0WN1,
1180,small_airport,Coopers Landing Airport,46.127573,-119.014273,435.0,,US,0WN2,
1182,small_airport,Potts Field,42.79970169067383,-88.04869842529297,815.0,,US,0WN5,
1186,small_airport,Wings For Christ Airport,48.430464,-119.486058,1000.0,,US,0WN9,
1187,small_airport,Freedom Air Ranch Airport,43.039722,-111.038056,5698.0,,US,0WY0,
1188,small_airport,Dorsey Creek Ranch Airport,44.411111,-108.163333,4017.0,,US,0WY1,
1193,small_airport,Seven C's Ranch Airport,27.99690055847168,-98.8822021484375,331.0,,US,0XA4,
1194,small_airport,74 Ranch Airport,28.68490028381348,-98.38279724121094,320.0,,US,0XA5,
1196,small_airport,Bar 3 Ranch Airport,30.66270065,-97.62509918,744.0,,US,0XA7,
1199,small_airport,Diamond H Ranch Airport,28.400299072265625,-99.55870056152344,511.0,,US,0XS0,
1200,small_airport,Rodgers Roost Airport,29.28779983520508,-96.34970092773438,129.0,,US,0XS1,
1201,small_airport,John Fields Ranch Airport,30.555675,-100.53084,2342.0,,US,0XS2,
1205,small_airport,Lakeside Beach Airport,30.500999450683597,-98.14700317382812,800.0,,US,0XS6,
1206,small_airport,Anacacho Ranch Airport,29.193679,-100.280027,1067.0,,US,0XS7,
1207,small_airport,Dunbar Ranch Airport,29.07695,-100.371609,958.0,,US,0XS8,
1208,small_airport,French Field,32.134042,-95.339583,540.0,,US,0XS9,
1209,small_airport,Lambert Fechter Municipal Airport,43.16419982910156,-95.47000122070312,1452.0,,US,0Y4,
1210,small_airport,Lake Mills Municipal Airport,43.41659927368164,-93.5084991455078,1260.0,,US,0Y6,
1213,small_airport,Hunt Strip,61.59189987182617,-149.67799377441406,200.0,,US,10AK,
1216,small_airport,Pierce Airport,33.36640167236328,-112.61799621582033,860.0,,US,10AZ,
1220,small_airport,Silkman Farms Inc. Airport,39.45470047,-102.212997437,4000.0,,US,10CO,
1221,small_airport,Winsted Municipal Airport,44.95000076293945,-94.06690216064452,1030.0,,US,10D,
1222,small_airport,Rosser Ranch Airport,33.0154,-98.626,1112.0,,US,10TT,
1223,small_airport,Flying Baron Estates Airport,28.79750061035156,-81.93589782714844,75.0,,US,10FA,
1224,small_airport,Seven Feathers Airport,29.00659942626953,-82.40460205078125,68.0,,US,10FD,
1226,small_airport,Beaverbrook Aerodrome,33.32509994506836,-84.29830169677734,910.0,,US,10GA,
1227,small_airport,Flyers Airport,42.41669845581055,-92.2501983642578,830.0,,US,10IA,
1228,small_airport,Flat Top Airstrip,43.49440002441406,-113.9219970703125,5841.0,,US,10ID,
1234,small_airport,Industrial Helicopters Inc. Airport,30.24740028381348,-92.09600067138672,35.0,,US,10LA,
1242,small_airport,Hoolie Airport,47.83330154418945,-106.48400115966795,2526.0,,US,10MT,
1244,small_airport,Johnston Farm Airport,36.34310150146485,-77.5093994140625,60.0,,US,10NC,
1245,small_airport,Smith Strip,47.1875,-102.36199951171876,2200.0,,US,10ND,
1251,small_airport,Zoellner Airport,41.402517,-82.629333,617.0,,US,10OH,
1252,small_airport,Hickory Hills Airport,35.16669845581055,-97.21700286865234,1175.0,,US,10OK,
1253,small_airport,Stevens Mountain Airport,45.78929901123047,-123.23200225830078,1000.0,,US,10OR,
1258,small_airport,Gottwald Field,29.666900634765625,-97.50029754638672,440.0,,US,10TE,
1259,small_airport,Flatwood Field,36.0718994140625,-86.35440063476562,600.0,,US,10TN,
1263,small_airport,Nashs Airport,37.38629913330078,-78.81310272216797,785.0,,US,10VA,
1266,small_airport,Buds Landing Airport,45.11579895019531,-88.18949890136719,850.0,,US,10WI,
1267,small_airport,Willow Creek Ranch Airport,43.423333,-106.823611,5521.0,,US,10WY,
1268,small_airport,Flying S Air Ranch Airport,31.77949905395508,-98.9093017578125,1447.0,,US,10XS,
1269,small_airport,Rocking T. Ranch Airport,63.9995994568,-145.501998901,1190.0,,US,11AK,
1272,small_airport,Whetstone Airport,31.683588,-110.290053,4250.0,,US,11AZ,
1273,small_airport,Turner Field,36.673301696777344,-119.72200012207033,300.0,,US,11CA,
1274,small_airport,Hansen Airport,34.630001068115234,-117.65299987792967,2885.0,,US,11CL,
1277,small_airport,B & L Farms Airport,25.58370018005371,-80.49980163574219,9.0,,US,11FA,
1279,small_airport,Williams Field,30.042999267578125,-81.88089752197266,88.0,,US,11FL,
1284,small_airport,Atterbury Field (Camp Atterbury),39.3417015076,-86.0305023193,710.0,,US,11II,
1286,small_airport,Jr's Airport,39.81890106201172,-86.53810119628906,950.0,,US,11IN,
1291,small_airport,Thacker Airport,40.722514,-88.769108,720.0,,US,11LL,
1292,small_airport,Jasmine Hill Airport,30.976321,-92.56888,120.0,,US,11LS,
1293,small_airport,Fulton-Itawamba County Airport,34.35200119018555,-88.3772964477539,450.0,,US,11M,
1294,small_airport,Bulljump Airport,41.80730056762695,-70.7583999633789,60.0,,US,11MA,
1295,small_airport,Tim's Airport,38.42002,-75.63168,42.0,,US,11MD,
1298,small_airport,Redgate Ranch Airport,38.90169906616211,-91.63520050048828,820.0,,US,11MO,
1299,small_airport,Lammers Airport,46.462777,-109.490555,4098.0,,US,11MT,
1300,small_airport,Rocky Top Airfield,36.657916,-92.465578,1273.0,,US,11MU,
1301,small_airport,Candlelight Farms Airport,41.56679916381836,-73.46620178222656,675.0,,US,11N,
1303,small_airport,Kaan Airport,42.442501068115234,-103.91600036621094,4650.0,,US,11NE,
1305,small_airport,Hop House Airpark,42.91389846801758,-74.61170196533203,530.0,,US,11NK,
1307,small_airport,Saikkonen Airport,42.20899963378906,-76.44969940185547,969.0,,US,11NY,
1308,small_airport,Hide-A-Way Hills Resort Airport,39.64310073852539,-82.466796875,780.0,,US,11OA,
1309,small_airport,Unity Airport,44.45130157470703,-118.18699645996094,3975.0,,US,11OG,
1311,small_airport,Beefor Ranch Airport,35.07229995727539,-97.38359832763672,1150.0,,US,11OK,
1312,small_airport,Holiday Sky Ranch Airport,43.39350128173828,-123.28500366210938,510.0,,US,11OR,
1314,small_airport,Eakin Airport,41.3525,-79.732778,1489.0,,US,11PN,
1315,small_airport,Sekiu Airport,48.2661018371582,-124.31400299072266,355.0,,US,11S,
1317,small_airport,Flying M Ranch Airport,32.30009841918945,-97.20449829101562,700.0,,US,11TE,
1318,small_airport,Salem Field,36.47499847412109,-87.36669921875,425.0,,US,11TN,
1319,small_airport,Pt Enterprise D&W Ranch Airport,31.657899856567383,-96.4113998413086,526.0,,US,11TS,
1320,small_airport,Butler Airport,33.667813,-96.691971,840.0,,US,11TX,
1321,small_airport,Flying R Airport,41.2538528,-111.7110611,5060.0,,US,11UT,
1323,small_airport,Devil's Reach Landing Airport,38.20940017700195,-77.00060272216797,28.0,,US,11VG,
1324,small_airport,Homeport Airport,47.52379989624024,-117.47000122070312,2320.0,,US,11WA,
1328,small_airport,Flying Feathers Airport,44.061183,-88.194933,940.0,,US,11Y,
1329,small_airport,Arkavalley Airport,35.17839813,-92.33540344,329.0,,US,12A,
1331,small_airport,Gibbons Airport,34.515444,-90.973722,178.0,,US,12AR,
1332,small_airport,Ranta Strip,33.853901,-112.653001,1840.0,,US,12AZ,
1333,small_airport,Faber Vineyards Airport,38.10960006713867,-121.16899871826172,70.0,,US,12CA,
1334,small_airport,Newton Field,36.15689849853516,-119.8499984741211,194.0,,US,12CL,
1335,small_airport,Richter Airport,39.268306,-122.116689,57.0,,US,12CN,
1336,small_airport,Omega 1 STOLport,38.83549880981445,-107.81500244140624,6409.0,,US,12CO,
1343,small_airport,Plueger Airfield,42.80049896240234,-96.13780212402344,1245.0,,US,12IA,
1344,small_airport,Flying B Ranch Landing Strip,44.96799850463867,-114.73300170898438,3647.0,,US,12ID,
1345,small_airport,Pentecost Airport,39.856201171875,-84.97219848632812,1020.0,,US,12II,
1346,small_airport,Hawker Airport,41.20000076293945,-88.0167007446289,620.0,,US,12IL,
1347,small_airport,J & S Field,38.11859893798828,-87.64749908447266,465.0,,US,12IN,
1350,small_airport,Sooter Airport,37.93529891967773,-97.48780059814452,1420.0,,US,12KS,
1351,small_airport,John M. Foree Airport,38.46030044555664,-85.1686019897461,853.0,,US,12KY,
1352,small_airport,Kml Airport,30.27589988708496,-93.3573989868164,20.0,,US,12LA,
1354,small_airport,Hains Airstrip,30.178600311279297,-92.28500366210938,20.0,,US,12LS,
1357,small_airport,Ridgeview Airport,44.32229995727539,-69.2072982788086,240.0,,US,12ME,
1358,small_airport,John's Airport,43.051700592041016,-83.49189758300781,820.0,,US,12MI,
1361,small_airport,Green Acres Airport,31.09309959411621,-91.31900024414062,300.0,,US,12MS,
1362,small_airport,Lincolns Field,48.774200439453125,-110.44200134277344,2931.0,,US,12MT,
1363,small_airport,Atlantic Field Mcolf Airport,34.8833007812,-76.34999847410002,20.0,,US,12NC,
1364,small_airport,Pietschtree Airstrip,48.2952995300293,-101.427001953125,1566.0,,US,12ND,
1365,small_airport,Reisig Brothers Airport,41.90660095214844,-103.6999969482422,3985.0,,US,12NE,
1366,small_airport,Gile Pond Airport,43.495278,-71.654444,485.0,,US,12NH,
1368,small_airport,Westport Airport,44.15840148925781,-73.43289947509766,276.0,,US,12NK,
1372,small_airport,Mcgregor Airfield,39.83480072021485,-84.33470153808594,940.0,,US,12OH,
1374,small_airport,Skinner Ranch Airport,42.95130157470703,-117.28199768066406,4273.0,,US,12OR,
1379,small_airport,Monument Municipal Airport,44.8317985534668,-119.43000030517578,2323.0,,US,12S,
1380,small_airport,Over the Hill Airport,34.14139938354492,-80.74669647216797,250.0,,US,12SC,
1383,small_airport,Curtis Ranch Field,31.312844,-99.24048,1740.0,,US,12TE,
1384,small_airport,Riley Creek Airport,35.823699951171875,-84.53880310058594,750.0,,US,12TN,
1385,small_airport,Blo Airport,32.908501,-97.977303,1050.0,,US,12TS,
1386,small_airport,Griffin Airport,30.821253,-98.081024,1235.0,,US,12TX,
1387,small_airport,Hop-Along Airport,37.78810119628906,-79.7677993774414,1060.0,,US,12VA,
1388,small_airport,Fowlers Nw 40 Airport,47.52069854736328,-117.46299743652344,2313.0,,US,12WA,
1391,small_airport,Crazy Horse Airport,38.3421667,-82.115,603.0,,US,12WV,
1392,small_airport,Black Diamond Airport,44.45,-108.384667,4400.0,,US,12WY,
1393,small_airport,Wood Farm Airfield,32.0393333,-102.3485833,2950.0,,US,12XA,
1394,small_airport,Mc Croskey Field,34.95470047,-91.83719635010002,253.0,,US,12XS,
1395,small_airport,Satterbergs Airport,61.65470123291016,-149.89999389648438,350.0,,US,13AK,
1398,small_airport,Waltenberry Field Ultralightport,33.535,-112.853472222,1213.0,,US,13AZ,
1400,small_airport,Maine Prairie Airport,38.38130187988281,-121.8239974975586,40.0,,US,13CL,
1403,small_airport,Earle Airpark,29.69440078735352,-81.51370239257812,25.0,,US,13FA,
1406,small_airport,Oak Ridge Plantation Airport,31.3666,-83.754898,350.0,,US,13GA,
1407,small_airport,Holt Airpark,32.360801696777344,-82.31809997558594,280.0,,US,13GE,
1408,small_airport,Hillside Stables Airport,42.04570007324219,-90.19110107421876,760.0,,US,13IA,
1409,small_airport,Silva Ranch Airport,44.2666015625,-115.0009994506836,6400.0,,US,13ID,
1411,small_airport,Gage Airport,40.81529998779297,-84.92769622802734,814.0,,US,13IN,
1413,small_airport,Daniel's Landing Airport,37.69779968261719,-97.11029815673828,1325.0,,US,13KS,
1414,small_airport,Miles Airport,37.704812,-87.158586,407.0,,US,13KY,
1417,small_airport,Tee Brad's Airport,29.993900299072266,-92.3855972290039,12.0,,US,13LS,
1419,small_airport,Metropolitan Airport,42.2233009338,-72.31140136719999,418.0,,US,13MA,PMX
1420,small_airport,Socatean Bay Airport,45.77640151977539,-69.8093032836914,1179.0,,US,13ME,
1422,small_airport,Melby Airport,46.10079956054688,-95.8313980102539,1250.0,,US,13MN,
1423,small_airport,Domeyer Airport,37.67639923095703,-91.7064971923828,1260.0,,US,13MO,
1424,small_airport,Greener Pastures Airpark,30.63330078125,-89.66390228271484,180.0,,US,13MS,
1425,small_airport,Sorenson Airport,48.52080154418945,-110.11299896240234,2873.0,,US,13MT,
1427,small_airport,Oak Grove Marine Corps Outlying Field,35.025006,-77.255945,27.0,,US,13NC,
1428,small_airport,Hock Airport,40.31669998168945,-100.80899810791016,2777.0,,US,13NE,
1431,small_airport,Beaverhead Airstrip,33.419437,-108.142216,7378.0,,US,13NM,
1436,small_airport,Aubrey Mountain Airstrip,43.740699768066406,-122.4260025024414,1680.0,,US,13OR,
1437,small_airport,Rigrtona Airport,41.68259811401367,-79.4520034790039,1703.0,,US,13PA,
1438,small_airport,Richland Acres Ultralightport,40.45429992675781,-75.30460357666016,550.0,,US,13PN,
1440,small_airport,Jewett Mesa Airport,34.00339889526367,-108.6780014038086,7681.0,,US,13Q,
1444,small_airport,Varisco Airport,30.6560001373291,-96.53829956054688,240.0,,US,13TE,
1446,small_airport,Van Es Ranch Airport,27.455299377441406,-98.92639923095705,830.0,,US,13TS,
1450,small_airport,Camano Island Airfield,48.25699996948242,-122.43699645996094,145.0,,US,13W,
1452,small_airport,Nowatzski Field,43.6963996887207,-88.99960327148438,920.0,,US,13WI,
1454,small_airport,Littlefork Muni/Hanover Airport,48.41659927,-93.58630371,1145.0,,US,13Y,
1456,small_airport,Four Corners Airport,61.60150146484375,-149.2480010986328,300.0,,US,14AK,
1458,small_airport,Rice-Bell Field Airport,35.0527992249,-90.6750030518,221.0,,US,14AR,
1459,small_airport,Ruby Star Airpark,31.909494,-111.120293,4025.0,,US,14AZ,
1462,small_airport,Good Pasture Airport,38.097198486328125,-104.91000366210938,6000.0,,US,14CO,
1464,small_airport,Burrs Strip,25.57010078430176,-80.3998031616211,10.0,,US,14FA,
1469,small_airport,Bloom Airport,39.633399963378906,-83.7499008178711,1050.0,,US,14I,
1470,small_airport,Peaceful Cove Airport,43.680999755859375,-116.2030029296875,2920.0,,US,14ID,
1474,small_airport,G & S Space Port Airport,38.26919937133789,-94.90480041503906,940.0,,US,14KS,
1475,small_airport,Blue Haven Farm Airport,38.17369842529297,-84.36830139160156,985.0,,US,14KY,
1481,small_airport,Ring Hill Airport,44.792598724365234,-69.07029724121094,340.0,,US,14ME,
1485,small_airport,Rose Field,32.345298767089844,-89.0342025756836,400.0,,US,14MS,
1486,small_airport,Holland Ranch Airport,47.05160140991211,-109.0749969482422,4050.0,,US,14MT,
1487,small_airport,Beltzville Airport,40.84429931640625,-75.635498046875,899.0,,US,14N,
1488,small_airport,Camp Davis Mcolf Airport,34.516700744628906,-77.55000305175781,60.0,,US,14NC,
1489,small_airport,Hagen Private Airport,46.207801818847656,-102.90799713134766,2810.0,,US,14ND,
1493,small_airport,Mountain View Airport,43.34000015258789,-73.47899627685547,243.0,,US,14NK,
1495,small_airport,Heilman Airport,40.66889953613281,-83.44349670410156,930.0,,US,14OH,
1496,small_airport,Pleasant Home Gliding Club Gliderport,40.9192008972168,-82.11399841308594,1050.0,,US,14OI,
1499,small_airport,Boggs Field,38.82389831542969,-81.34940338134766,927.0,,US,14P,
1500,small_airport,Dimascio Field,40.29090118408203,-75.65910339355469,350.0,,US,14PA,
1502,small_airport,Hideaway Ultralightport,39.8843994140625,-76.11859893798828,630.0,,US,14PS,
1503,small_airport,Westport Airport,46.89690017700195,-124.10099792480467,14.0,,US,14S,
1505,small_airport,Dean Ranch Airport,29.89859962463379,-98.4030990600586,1180.0,,US,14TA,
1506,small_airport,Smith I-Ranch Airport,30.917624,-99.475771,1793.0,,US,14TE,
1508,small_airport,O S Wyatt Airport,27.42169952392578,-98.60449981689452,532.0,,US,14TS,
1509,small_airport,Keyes Ranch Airport,30.289400100708008,-98.17389678955078,1150.0,,US,14TX,
1510,small_airport,Krens Farm Airport,39.229000091552734,-77.74669647216797,790.0,,US,14VA,
1511,small_airport,Abilene Airport,37.16913,-78.52092,590.0,,US,14VG,
1512,small_airport,Lz Ranch Airport,46.970699310302734,-122.73699951171876,240.0,,US,14WA,
1514,small_airport,Lakewood Lodge Airport,45.77799987792969,-91.55850219726562,1365.0,,US,14WS,
1516,small_airport,Sherman (Frog Pond) Airport,33.6578884021,-96.7882847786,686.0,,US,14XA,
1517,small_airport,Isbell Ranch Airport,30.808500289916992,-97.2739028930664,430.0,,US,14XS,
1518,small_airport,Mark Reynolds/North Mobile County Airport,30.91320037841797,-87.98059844970703,60.0,,US,15A,
1519,small_airport,Golden North Airfield,63.37070083618164,-148.85000610351562,2250.0,,US,15AK,
1521,small_airport,Taylor Airport,34.825901,-90.543297,220.0,,US,15AR,
1524,small_airport,Hunt Farms Airport,37.34270095825195,-120.40399932861328,223.0,,US,15CL,
1526,small_airport,Orange Hill Airport,30.65850067138672,-85.52989959716797,260.0,,US,15FD,
1527,small_airport,Cannon Creek Airpark,30.15369987487793,-82.66639709472656,125.0,,US,15FL,
1528,small_airport,Weltzien Skypark Airport,41.02840042114258,-81.79850006103516,1210.0,,US,15G,
1529,small_airport,Darla's Airport,32.680198669433594,-82.47899627685547,328.0,,US,15GA,
1530,small_airport,Stella Airport,42.235396,-90.406767,625.0,,US,15IA,
1531,small_airport,Scanlon Airport,47.68560028076172,-117.03800201416016,2000.0,,US,15ID,
1533,small_airport,Gittleson Farms Airport,41.79729843139648,-89.27320098876953,836.0,,US,15IL,
1534,small_airport,Bugtown Airport,38.15060043334961,-87.84030151367188,464.0,,US,15IN,
1535,small_airport,Sickler Airstrip,38.43059921264648,-96.08830261230467,1200.0,,US,15KS,
1536,small_airport,Brennan Farm Airport,38.15700149536133,-84.30159759521484,910.0,,US,15KY,
1538,small_airport,Cloverleaf Ranch Airport,41.23749923706055,-89.53669738769531,807.0,,US,15LL,
1540,small_airport,Canapitsit Airport,41.42229843139648,-70.90950012207031,10.0,,US,15MA,
1541,small_airport,Eagle Field,43.81529998779297,-70.22920227050781,150.0,,US,15ME,
1543,small_airport,Tyler Farms Airport,45.26219940185547,-94.5106964111328,1185.0,,US,15MN,
1544,small_airport,Applegate Airport,40.391998291015625,-92.56549835205078,997.0,,US,15MO,
1545,small_airport,Saubak Airport,48.50040054321289,-105.91000366210938,2701.0,,US,15MT,
1546,small_airport,Jenkins Airport,39.11959838867188,-75.58380126953125,53.0,,US,15N,
1547,small_airport,Dragonfly Field,36.23970031738281,-76.9738998413086,49.0,,US,15NC,
1548,small_airport,Sindt Airport,40.29109954833984,-98.82340240478516,1990.0,,US,15NE,
1558,small_airport,Cavage Personal Use Airport,41.59429931640625,-75.35549926757812,1400.0,,US,15PA,
1561,small_airport,Lester State Ultralightport,47.2150993347168,-121.46199798583984,1693.0,,US,15S,
1563,small_airport,J R Ranch Airport,30.9367,-97.89932,1125.0,,US,15TA,
1568,small_airport,Fox Acres Airport,38.7223014831543,-77.89969635009766,450.0,,US,15VA,
1569,small_airport,Dennis Farms Airport,42.89450073242188,-84.39029693603516,826.0,,US,15W,
1570,small_airport,Sunset Airport,48.27230072,-122.3570023,156.0,,US,15WA,
1571,small_airport,Peterson Field,42.9275016784668,-89.41819763183594,978.0,,US,15WI,
1572,small_airport,Toy Airpark,29.33270072937012,-95.33409881591795,36.0,,US,15XS,
1573,small_airport,Nunapitchuk Airport,60.905591,-162.440454,12.0,,US,PPIT,NUP
1574,small_airport,Gattis Strip,61.59920120239258,-149.3470001220703,320.0,,US,16AK,
1576,small_airport,Heifer Creek Ranch Airport,35.30110168457031,-92.57330322265624,730.0,,US,16AR,
1577,small_airport,Yav'pe Ma'ta Airport,34.5088996887207,-112.68000030517578,4366.0,,US,16AZ,
1580,small_airport,Dry Pen Airport,39.40227,-108.07602,5331.0,,US,16CO,
1582,small_airport,Little Deer Airport,26.03089904785156,-81.0386962890625,14.0,,US,16FA,
1583,small_airport,Skinners Wholesale Nursery Airport,29.405000686645508,-81.49590301513672,20.0,,US,16FD,
1584,small_airport,J-22 Ranch Airport,30.72520065307617,-87.20140075683594,200.0,,US,16FL,
1586,small_airport,Stangl STOLport,41.88079833984375,-94.7771987915039,1230.0,,US,16IA,
1588,small_airport,Harrington Field,41.183101654052734,-86.93360137939453,710.0,,US,16II,
1589,small_airport,Harold Bunger Airport,42.06669998168945,-88.8333969116211,830.0,,US,16IL,
1591,small_airport,Kellums Airport,37.577608,-89.008583,720.0,,US,16IS,
1598,small_airport,High Valley Airport,39.668611,-75.960278,363.0,,US,16MD,
1600,small_airport,Barnstormers 5 Airport,42.889198303222656,-83.8666000366211,823.0,,US,16MI,
1602,small_airport,Findley Field,38.40560150146485,-91.15740203857422,755.0,,US,16MO,
1604,small_airport,Bangart Field,45.40520095825195,-109.12999725341795,4320.0,,US,16MT,
1605,small_airport,Lee's Airport,36.19609832763672,-76.66529846191406,31.0,,US,16NC,
1606,small_airport,Korver Airport,40.560001373291016,-96.49169921875,1390.0,,US,16NE,
1612,small_airport,Trump Airport,40.125301361083984,-84.5824966430664,1038.0,,US,16OI,
1615,small_airport,Gregg Airport,40.18059921264648,-80.12760162353516,1200.0,,US,16PA,
1617,small_airport,Myrtle Creek Municipal Airport,42.99850082397461,-123.30999755859376,619.0,,US,16S,
1618,small_airport,Southern Aero Sports Airport,34.625099182128906,-81.89839935302734,600.0,,US,16SC,
1619,small_airport,Seven Springs Airport,30.919701,-103.782997,3500.0,,US,16TA,
1620,small_airport,Holly Lake Ranch Airport,32.697601318359375,-95.20770263671876,409.0,,US,16TE,
1622,small_airport,Pineridge STOLport,32.22269821166992,-95.31800079345705,420.0,,US,16TS,
1623,small_airport,16 L Ranch Airport,31.093611,-96.04375,390.0,,US,16TT,
1626,small_airport,Little Goose Lock and Dam Airport,46.583931,-118.003972,681.0,,US,,
1627,small_airport,Tightcliff Airport,47.84469985961914,-117.69400024414062,1855.0,,US,16WA,
1629,small_airport,Propwash Airport,33.0806999206543,-97.35890197753906,800.0,,US,16X,
1631,small_airport,Outlaw Flyers Airport,30.404367,-95.35985,270.0,,US,16XS,
1635,small_airport,Bredlow Farm Airport,34.5531005859375,-92.09140014648438,236.0,,US,17AR,
1638,small_airport,Las Trancas Airport,37.088545,-122.273691,125.0,,US,17CL,
1639,small_airport,Skylane Ranch Airport,40.272258,-105.032625,5000.0,,US,17CO,
1640,small_airport,Cotton Strip,26.71339988708496,-81.535400390625,18.0,,US,17FA,
1642,small_airport,Jumbolair-Greystone Airport,29.2803001404,-82.1248016357,100.0,,US,17FL,
1643,small_airport,Panther Creek Airport,33.46670150756836,-84.86609649658203,850.0,,US,17GA,
1644,small_airport,Coyote Ridge Airport,44.41389846801758,-116.59100341796876,3365.0,,US,17ID,
1645,small_airport,Dreessen Field,41.45000076293945,-86.51029968261719,706.0,,US,17II,
1646,small_airport,Pruss Airport,38.97840118408203,-85.10970306396484,890.0,,US,17IN,
1647,small_airport,Tevis Airport,38.50279998779297,-95.6772003173828,1000.0,,US,17KS,
1648,small_airport,Lester Airfield,37.393902,-87.258904,440.0,,US,17KY,
1651,small_airport,Yankee Field,30.611979,-91.985704,45.0,,US,17LS,
1653,small_airport,Bresett'S Mountainside Airport,47.2025,-67.991667,590.0,,US,17ME,
1656,small_airport,Rgl Field,38.98500061035156,-91.53489685058594,825.0,,US,17MO,
1658,small_airport,Abel Ranch Airport,48.10710144042969,-114.177001953125,2900.0,,US,17MT,
1659,small_airport,B-B Airfield,39.682791,-94.372097,1045.0,,US,17MU,
1660,small_airport,Mitchell Field,34.46630096435547,-78.32859802246094,23.0,,US,17NC,
1664,small_airport,Re-Dun Field,42.53950119018555,-76.94830322265625,1351.0,,US,17NK,
1666,small_airport,Kosik Private Airport,41.24259948730469,-82.27020263671875,855.0,,US,17OH,
1667,small_airport,Haas Airport,39.22669982910156,-83.31770324707031,750.0,,US,17OI,
1669,small_airport,Glide Aero Airport,43.264198303222656,-123.11000061035156,980.0,,US,17OR,
1672,small_airport,Mountain Crest Airport,41.579200744628906,-79.44170379638672,1641.0,,US,17PS,
1673,small_airport,Chehalem Airpark,45.32369995117188,-123.0540008544922,190.0,,US,17S,
1674,small_airport,Carolina Cow Country Airport,34.53260040283203,-81.88619995117188,680.0,,US,17SC,
1675,small_airport,Stone's Conservation Airport,44.818642,-96.564016,1687.0,,US,17SD,
1677,small_airport,Comfort Airpark,29.929100036621094,-98.94029998779295,1470.0,,US,17TE,
1678,small_airport,Murphy Field,36.29940032958984,-82.60420227050781,1720.0,,US,17TN,
1681,small_airport,Kimzey Airport,32.443395,-98.255024,1100.0,,US,17TX,
1682,small_airport,Jake Garn Airport,40.26369857788086,-112.02100372314452,4845.0,,US,17U,
1685,small_airport,Ha-Rail Airport,43.03609848022461,-88.89320373535156,885.0,,US,17WI,
1686,small_airport,Jacksonville / Hunter Field,32.017778,-95.7969444445,580.0,,US,17XA,
1687,small_airport,Quahadi Ranch Airport,32.17779922485352,-98.43499755859376,1422.0,,US,17XS,
1688,small_airport,18 Meadows Aerodrome,59.313222,-135.72322,89.0,,US,18AA,
1691,small_airport,Buck Mountain Airport,36.344200134277344,-93.83170318603516,1450.0,,US,18AR,
1692,small_airport,Sky Ranch At Carefree Airport,33.818536,-111.898327,2568.0,,US,18AZ,
1694,small_airport,Bowles Airport,39.2859992980957,-121.69400024414062,75.0,,US,18CL,
1697,small_airport,Skypark Estates Owners Assoc Airport,30.853394,-86.667214,250.0,,US,18FD,
1699,small_airport,Sleepy Hollow Airport,33.693199157714844,-83.65769958496094,750.0,,US,18GA,
1701,small_airport,Mc Gill Airport,40.1199989319,-86.0682983398,855.0,,US,18II,
1703,small_airport,Kester Fly Inn Airport,39.27840042114258,-87.4135971069336,575.0,,US,18IN,
1705,small_airport,Skamokawa East Valley Airport,46.284698486328125,-123.44300079345705,19.0,,US,18JY,
1706,small_airport,Fowler Airport,37.38420104980469,-100.18599700927734,2483.0,,US,18K,
1707,small_airport,Cherokee Strip,37.372435,-97.108223,1270.0,,US,18KS,
1713,small_airport,Ruby Airport,43.893597,-69.495406,216.0,,US,18ME,
1715,small_airport,Hines Farm Airport,46.23720169067383,-94.59310150146484,1283.0,,US,18MN,
1716,small_airport,Gimlin Airport,36.96260070800781,-93.1707000732422,1380.0,,US,18MO,
1717,small_airport,Fish Ranch Airport,45.21599960327149,-113.4990005493164,7200.0,,US,18MT,
1718,small_airport,Lanni Field,35.888999938964844,-81.61370086669922,1160.0,,US,18NC,
1719,small_airport,Doc's Airport,40.51390075683594,-97.61060333251952,1640.0,,US,18NE,
1721,small_airport,Strip in the Woods Airport,42.01649856567383,-74.04900360107422,500.0,,US,18NY,
1722,small_airport,Jer-Mar Airpark,41.25619888305664,-82.143798828125,800.0,,US,18OH,
1723,small_airport,Boggy Bottoms Airport,41.42340087890625,-82.98269653320312,575.0,,US,18OI,
1725,small_airport,Red's Field,45.0918655396,-123.182350159,190.0,,US,18OR,
1726,small_airport,Slack Airport,40.30009841918945,-75.08290100097656,275.0,,US,18PA,
1727,small_airport,Spud View Airport,40.06539916992188,-77.69280242919922,733.0,,US,18PN,
1728,small_airport,Connelly Field,34.27399826049805,-81.77339935302734,570.0,,US,18SC,
1729,small_airport,West Kerr Ranch Airport,30.13629913330078,-99.7436981201172,2330.0,,US,18TA,
1730,small_airport,Alert Field,32.585201263427734,-95.06390380859376,390.0,,US,18TE,
1733,small_airport,Flying 'T' Ranch Airport,32.95249938964844,-96.22810363769533,545.0,,US,18TX,
1738,small_airport,Lynn Airport,39.41,-79.856667,1680.0,,US,18WV,
1739,small_airport,Lantana Ridge Airport,28.6591,-97.5987472,250.0,,US,18XA,
1740,small_airport,Gardner Farm Airport,33.80009841918945,-101.03399658203124,3000.0,,US,18XS,
1741,small_airport,Milaca Municipal Airport,45.772499084472656,-93.6322021484375,1100.0,,US,18Y,
1742,small_airport,Icy Bay Airport,59.966269,-141.660118,50.0,,US,19AK,ICY
1744,small_airport,Naylor field,35.15670013,-92.22419739,230.0,,US,19AR,
1745,small_airport,Montezuma Airport,34.60499954223633,-111.86499786376952,3370.0,,US,19AZ,
1750,small_airport,Willow Pond Aviation Inc Airport,33.42369842529297,-84.4999008178711,868.0,,US,19GA,
1751,small_airport,Ancam Antique Airfield,40.8568000793457,-91.20379638671876,690.0,,US,19IA,
1755,small_airport,Clark Airport,40.19449996948242,-86.52310180664062,880.0,,US,19IN,
1756,small_airport,Skillet Fork Farm Airport,38.2958984375,-88.55699920654297,430.0,,US,19IS,
1758,small_airport,Conrads Airport,38.70650100708008,-84.59989929199219,940.0,,US,19KY,
1760,small_airport,Neiner Airport,41.25699996948242,-87.91950225830078,650.0,,US,19LL,
1766,small_airport,N Bar Ranch Airport,46.838111,-108.936833,4446.0,,US,19MT,
1767,small_airport,Double S Airport,36.06489944458008,-77.9229965209961,195.0,,US,19NC,
1768,small_airport,Breckheimer Airport,47.73329925537109,-98.48870086669922,1458.0,,US,19ND,
1769,small_airport,Hoyt Airport,40.10829925537109,-100.80899810791016,2707.0,,US,19NE,
1772,small_airport,Riveredge Airpark,43.243900299072266,-76.15280151367188,378.0,,US,19NK,
1773,small_airport,Four Seasons Airport,42.40620040893555,-77.96080017089844,1650.0,,US,19NY,
1776,small_airport,Gerhart Airport,35.72840118408203,-95.97720336914062,940.0,,US,19OK,
1777,small_airport,Nelson Ranch Airport,45.10960006713867,-121.2239990234375,2000.0,,US,19OR,
1779,small_airport,Lake Airport,41.117000579833984,-76.52079772949219,750.0,,US,19PA,
1781,small_airport,Sexton Airport,34.353833,-81.802358,593.0,,US,19SC,
1783,small_airport,Lagrone Ranch Airport,32.82229995727539,-96.41690063476562,567.0,,US,19TA,
1785,small_airport,Ferraraccio Field,36.4994010925293,-87.19029998779297,620.0,,US,19TN,
1787,small_airport,Woody Mc Clellan Ranch Airport,31.23819923400879,-97.51419830322266,690.0,,US,19TX,
1788,small_airport,Flying W Airport,36.88970184326172,-82.29779815673828,1760.0,,US,19VA,
1789,small_airport,Key Way Airport,45.71960067749024,-121.88600158691406,972.0,,US,19WA,
1790,small_airport,Erickson Field,45.1952018737793,-92.05709838867188,1180.0,,US,19WI,
1791,small_airport,Draggintail Acres Airport,32.29719924926758,-97.08689880371094,585.0,,US,19XS,
1792,small_airport,Green Acres Airport,42.14870071411133,-73.7509994506836,295.0,,US,1A1,
1793,small_airport,Arthur Airport,47.11109924316406,-97.2072982788086,973.0,,US,1A2,
1794,small_airport,Empire Airport,40.577999,-119.352997,3990.0,,US,18NV,
1796,small_airport,Crevice Creek Airport,67.3729019165039,-152.01600646972656,840.0,,US,1AK1,
1797,small_airport,Crosswind Lake Airport,62.4009017944336,-146.01300048828125,2125.0,,US,1AK2,
1798,small_airport,Kenai River Airpark,60.5242,-150.751999,200.0,,US,1AK4,
1800,small_airport,Talachulitna River Airport,61.85279846191406,-151.4080047607422,282.0,,US,1AK6,
1802,small_airport,Talaheim Airport,61.67689895629883,-151.38699340820312,610.0,,US,1AK8,
1806,small_airport,Tri-L Acres Airport,33.24860000610352,-86.59750366210938,580.0,,US,1AL2,
1808,small_airport,Elsanor Airport,30.544700622558597,-87.55940246582031,180.0,,US,1AL4,
1809,small_airport,Berry Field,30.63640022277832,-87.747802734375,170.0,,US,1AL5,
1812,small_airport,Moore Field,33.61109924316406,-86.47440338134766,730.0,,US,1AL8,
1814,small_airport,Breckenridge Airport,35.39870071411133,-91.1334991455078,221.0,,US,1AR0,
1815,small_airport,Walls Airport,34.527198791503906,-91.8727035522461,215.0,,US,1AR1,
1816,small_airport,Taylor Airstrip,34.98680114746094,-91.55030059814452,208.0,,US,1AR2,
1819,small_airport,Cherokee Strip,36.29940032958984,-94.58470153808594,1194.0,,US,1AR5,
1820,small_airport,Diamond Bluff Airport,35.503299713134766,-92.19670104980467,1000.0,,US,1AR6,
1823,small_airport,Country Air Estates Airport,34.813899993896484,-92.0,250.0,,US,1AR9,
1824,small_airport,Mobile Airport,33.111900329589844,-112.2689971923828,1261.0,,US,1AZ0,
1832,small_airport,Willow Springs Ranch Airport,35.295799255371094,-114.3730010986328,3750.0,,US,1AZ8,
1834,small_airport,Franconia Airport,44.195899963378906,-71.74949645996094,970.0,,US,1B5,
1835,small_airport,Chapin Field,43.05009841918945,-73.36620330810547,508.0,,US,1B8,
1836,small_airport,Argyle Airport,43.25419998168945,-73.47090148925781,330.0,,US,1C3,
1838,small_airport,Cottonwood Airport,42.29169845581055,-89.13619995117188,741.0,,US,1C8,
1839,small_airport,Frazier Lake Airpark,36.95330047607422,-121.46499633789062,151.0,,US,1C9,
1841,small_airport,Belridge Strip,35.467905,-119.72203,575.0,,US,,
1846,small_airport,On the Rocks Airport,32.765098571777344,-116.7229995727539,2650.0,,US,1CA6,
1851,small_airport,Reed Airport,40.69029998779297,-104.86699676513672,5350.0,,US,1CD1,
1852,small_airport,Tonga Airport,40.16719818115234,-104.79299926757812,4925.0,,US,1CD2,
1853,small_airport,Eagle Soaring Airport,40.5093002319336,-106.94300079345705,6600.0,,US,1CD4,
1856,small_airport,Little Buttes Antique Airfield,34.79410171508789,-118.27799987792967,2433.0,,US,1CL1,
1857,small_airport,Pontious Airport,34.942501068115234,-118.16999816894533,2610.0,,US,1CL2,
1866,small_airport,Williams Ranch Airport,38.16249847412109,-108.33999633789062,6842.0,,US,1CO2,
1867,small_airport,Bellmore Farms Airport,40.7041015625,-104.7979965209961,5225.0,,US,1CO3,
1868,small_airport,Clifford Field,38.57500076293945,-107.95899963378906,5560.0,,US,1CO4,
1869,small_airport,Melon Field,38.01530075073242,-103.6989974975586,4260.0,,US,1CO5,
1871,small_airport,Dodsworth Airport,38.55139923095703,-105.99199676513672,7480.0,,US,1CO7,
1872,small_airport,Everitt Airport,39.52920150756836,-104.65799713134766,6295.0,,US,1CO8,
1877,small_airport,Canton-Plymouth-Mettetal Airport,42.34820175170898,-83.456298828125,696.0,,US,1D2,
1878,small_airport,Mayfield Airport,40.99259948730469,-81.43180084228516,1100.0,,US,1D4,
1879,small_airport,Luther Airport,43.02920150756836,-75.84549713134766,740.0,,US,1D5,
1880,small_airport,Hector Municipal Airport,44.73109817504883,-94.7146987915039,1077.0,,US,1D6,
1881,small_airport,Mckeown Airport,39.495601654052734,-75.7332992553711,60.0,,US,1DE5,
1882,small_airport,Dry Swamp Airport,33.38779830932617,-80.91110229492188,180.0,,US,1DS,
1883,small_airport,Terlingua Ranch Airport,29.450199127197266,-103.39900207519533,3769.0,,US,1E2,
1884,small_airport,Palo Duro Airport,35.141998291015625,-101.83799743652344,3639.0,,US,1E4,
1885,small_airport,Elkins Field,34.4578018188,-78.6183013916,93.0,,US,1E6,
1886,small_airport,Buffalo Airport,35.064998626708984,-101.87899780273438,3640.0,,US,1E7,
1887,small_airport,Moores Airport,44.38759994506836,-75.06629943847656,814.0,,US,1E8,
1890,small_airport,Plateau Sky Ranch Airport,43.22510147094727,-74.11489868164062,1070.0,,US,1F2,
1892,small_airport,Airpark East Airport,32.81399917602539,-96.35220336914062,510.0,,US,1F7,
1893,small_airport,Post Oak Ranch Airport,28.85580062866211,-82.55259704589844,25.0,,US,1FA1,
1894,small_airport,Pine Island Airport,26.656200408935547,-82.12120056152344,12.0,,US,1FA3,
1898,small_airport,Villa Char Mar Airport,27.785144,-81.651354,134.0,,US,1FA9,
1902,small_airport,Corkscrew Trace Airpark,26.44540023803711,-81.6072998046875,29.0,,US,1FD4,
1910,small_airport,Z Ranch Airport,30.034400939941406,-82.78209686279297,75.0,,US,1FL3,
1917,small_airport,Michael Airfield,43.18170166015625,-76.12779998779297,400.0,,US,1G6,
1918,small_airport,Eddie Dew Memorial Airpark,40.47589874267578,-80.62809753417969,1084.0,,US,1G8,
1919,small_airport,Eagle Neck Airport,31.63940048217773,-81.3290023803711,10.0,,US,1GA0,
1921,small_airport,Flying N Estates Airport,33.17729949951172,-84.74849700927734,870.0,,US,1GA2,
1923,small_airport,Southern Agricultural Aviation Airport,32.32849884033203,-81.75540161132812,180.0,,US,1GA4,
1924,small_airport,Shilo Farms Airport,30.93099975585937,-83.38349914550781,211.0,,US,1GA5,
1927,small_airport,South One Ten Airport,31.17849922180176,-83.22650146484375,225.0,,US,1GA8,
1928,small_airport,Aerie Airport,33.76150131225586,-83.65270233154297,830.0,,US,1GA9,
1930,small_airport,C & W Air Park,32.84439849853516,-84.54389953613281,1306.0,,US,1GE2,
1931,small_airport,Answered Prayer Airport,33.25389862060547,-85.17030334472656,890.0,,US,1GE3,
1932,small_airport,Beckley Farms Airport,32.5010986328125,-83.93329620361328,425.0,,US,1GE4,
1933,small_airport,Flying D Airport,33.101200103759766,-84.39350128173828,838.0,,US,1GE5,
1934,small_airport,Forestry-Strip Airport,31.37240028381348,-82.12349700927734,105.0,,US,1GE6,
1935,small_airport,Hay Field,33.5172004699707,-83.439697265625,650.0,,US,1GE7,
1937,small_airport,Waverly Landing Airport,32.71440124511719,-84.71810150146484,675.0,,US,1GE9,
1938,small_airport,Airlane Enterprises Airport,43.2051010131836,-76.17880249023438,385.0,,US,1H1,
1939,small_airport,Greenville-Rainbow Airport,42.419465,-74.006889,840.0,,US,,
1940,small_airport,Harvey Young Airport,36.13899993896485,-95.8249969482422,750.0,,US,1H6,
1941,small_airport,Nest of Eagles Airport,45.83549880981445,-91.80269622802734,1120.0,,US,1H9,
1942,small_airport,Marcy Field,44.22090148925781,-73.79129791259766,985.0,,US,1I1,
1943,small_airport,Shawnee Field,39.04449844360352,-87.00559997558594,501.0,,US,1I3,
1945,small_airport,Converse Airport,40.570899963378906,-85.8917007446289,840.0,,US,1I8,
1946,small_airport,Delphi Municipal Airport,40.54280090332031,-86.68170166015625,675.0,,US,1I9,
1950,small_airport,Wallace Field,41.05550003051758,-94.39469909667967,1290.0,,US,1IA4,
1952,small_airport,Aero-Lane Airport,40.8849983215332,-95.48529815673828,1134.0,,US,1IA6,
1956,small_airport,Beaux Ranch Field,48.167999267578125,-116.72699737548828,2079.0,,US,1ID3,
1957,small_airport,Red Baron Airpark,43.3105555556,-115.9025,3259.0,,US,1ID4,
1960,small_airport,Fairbanks Airfield,42.587799072265625,-114.33399963378906,3830.0,,US,1ID7,
1962,small_airport,Skyline STOLport,42.78060150146485,-112.1709976196289,6150.0,,US,1ID9,
1963,small_airport,Webster Airport,39.576698303222656,-85.58779907226562,910.0,,US,1II0,
1964,small_airport,Adams Airport,40.61579895019531,-84.83480072021484,850.0,,US,1II2,
1965,small_airport,Davis Airport,38.95700073242188,-87.39420318603516,500.0,,US,1II3,
1966,small_airport,Amy Airport,38.125099182128906,-86.16220092773438,665.0,,US,1II4,
1967,small_airport,Van De Mark Airport,41.24729919433594,-86.50309753417969,730.0,,US,1II5,
1970,small_airport,Morris Airport,39.81420135498047,-85.81890106201172,870.0,,US,1II8,
1971,small_airport,Barnstorm Field,40.775001525878906,-89.0010986328125,731.0,,US,1IL0,
1972,small_airport,Horsefeathers Ranch Airport,39.24449920654297,-89.4259033203125,653.0,,US,1IL1,
1975,small_airport,Flight Park Inc Airport,38.418701,-90.131203,631.0,,US,1IL4,
1978,small_airport,Loy Airport,40.93199920654297,-87.59590148925781,665.0,,US,1IL8,
1979,small_airport,Holland Field,40.30059814453125,-89.12439727783203,715.0,,US,1IL9,
1980,small_airport,Belknap-Icarus Acres Airport,40.133399963378906,-85.23049926757812,1040.0,,US,1IN0,
1981,small_airport,Shearer STOLport,39.488399505615234,-86.6530990600586,750.0,,US,1IN1,
1983,small_airport,Confer's Place Airport,41.097801208496094,-85.24250030517578,865.0,,US,1IN3,
1984,small_airport,Robinson Airpark,38.14310073852539,-85.98780059814453,775.0,,US,1IN4,
1985,small_airport,Bottoms Brothers Airport,38.2848014831543,-87.38200378417969,545.0,,US,1IN5,
1986,small_airport,Cottingham Airport,40.40169906616211,-87.22029876708984,685.0,,US,1IN6,
1988,small_airport,Harold Emmerich Airport,38.524200439453125,-89.93229675292969,515.0,,US,1IS0,
1989,small_airport,Triple Creek Airport,39.89640045166016,-88.52230072021484,666.0,,US,1IS2,
1990,small_airport,Cribbet Airport,39.72779846191406,-89.05950164794922,620.0,,US,1IS3,
1991,small_airport,Swan Valley Farm Airport,42.134498596191406,-89.82460021972656,916.0,,US,1IS4,
1992,small_airport,Walder's Farm Airport,41.653099060058594,-89.00150299072266,900.0,,US,1IS5,
1995,small_airport,Fort Walton Beach Airport,30.406299591064453,-86.8291015625,22.0,,US,1J9,
1997,small_airport,Mahogany Mtn. Airport,43.06710052490234,-121.0530014038086,4620.0,,US,1JY2,
2001,small_airport,Lloyd Stearman Field,37.77790069580078,-97.1135025024414,1364.0,,US,1K1,
2003,small_airport,Waynoka Municipal Airport,36.56669998168945,-98.85230255126952,1543.0,,US,1K5,
2004,small_airport,Ellinwood Municipal Airport,38.37329864501953,-98.59510040283205,1797.0,,US,1K6,
2005,small_airport,South Grand Lake Regional Airport,36.5416984558,-95.0211029053,775.0,,US,1K8,
2006,small_airport,Kalakaket Creek AS Airport,64.4166256967,-156.820392609,1598.0,,US,1KC,KKK
2007,small_airport,Huey Airport,38.16949844360352,-97.97119903564452,1700.0,,US,1KS0,
2008,small_airport,Cochran Airport,38.45890045166016,-95.2260971069336,1005.0,,US,1KS1,
2009,small_airport,Risky Airport,39.31399917602539,-95.07160186767578,1133.0,,US,1KS2,
2010,small_airport,Leo's Place STOLport,39.30419921875,-96.75859832763672,1350.0,,US,1KS3,
2011,small_airport,Prichard Airstrip,38.900001525878906,-97.11699676513672,1164.0,,US,1KS4,
2012,small_airport,Keyser Airport,39.16249847412109,-96.09639739990234,950.0,,US,1KS5,
2013,small_airport,Silers Plane Valley Airport,38.86669921875,-97.5363998413086,1204.0,,US,1KS6,
2014,small_airport,Hitch Feeders Ii Inc. Airport,37.67359924316406,-101.01699829101562,3028.0,,US,1KS7,
2015,small_airport,Buehler Airport,38.51530075073242,-100.99500274658205,3038.0,,US,1KS8,
2016,small_airport,Belleair Airport,39.045601,-94.948996,935.0,,US,1KS9,
2017,small_airport,Holcomb Field,37.311833,-83.942633,1260.0,,US,1KT9,
2025,small_airport,Jordan Hill Farm Airport,37.83250045776367,-84.18080139160156,910.0,,US,1KY7,
2027,small_airport,Kidwell Airport,35.30550003051758,-114.88300323486328,2605.0,,US,1L4,
2028,small_airport,Ken Guidry #2 Airport,30.012107,-92.526941,6.0,,US,1LA0,
2029,small_airport,Triche Field,29.98349952697754,-90.43479919433594,10.0,,US,1LA1,
2031,small_airport,Goose Island Airport,30.030799865722656,-92.83350372314452,4.0,,US,1LA3,
